Sr. No.,STATE_NAME,DISTRICT_NAME,BLOCK_NAME,HABITATION_NAME,HAB_CODE,MASTER_FACILITY_DESC,ADDRESS,FILE_UPLOAD_DATE,MASTER_FACILITY_CATEGORY_NAME,SUB_CATEGORY,LATITUDE,LONGITUDE,Postcode_py,address_py
1,Andhra Pradesh,Krishna,Chatrai,Chatrai,209083,bedded hospital,chatrai,03-Sep-19,Medical ,Bedded Hospital,16.99992649,80.86482122,521214,"Burugagudem, Chatrai, Eluru District, Andhra Pradesh, 521214, India"
2,Andhra Pradesh,Y S R Kadapa,Chennur,Chennur,214338,Community Health Centre,"Dr no 14/365,KOR  colony, chennur",04-Sep-19,Medical ,Community Health Centre,14.55763912,78.79598499,516162,"Chennur, YSR District, Andhra Pradesh, 516162, India"
3,Andhra Pradesh,Guntur,Bellamkonda,Chandrajupalem,203720,beded hospital ,chandrajupalem,13-Aug-19,Medical ,Bedded Hospital,16.52947574,80.00726098,522411,"Rajupalem - Amaravathi Road, Avuluvdripalem, Krosuru, Palnadu District, Andhra Pradesh, 522411, India"
4,Andhra Pradesh,Chittoor,Gudipala,CHAVATANTHANGAL H W,211799,bedded hospital,chittoor district,04-Sep-19,Medical ,Bedded Hospital,13.13154818,79.11406796,517132,"NH40, Gopalapuram, Chittoor, Chittoor District, Andhra Pradesh, 517132, India"
5,Andhra Pradesh,Visakhapatnam,Anandapuram,Chandaka,200826,hospital bedded,main Road side ,04-Aug-19,Medical ,Bedded Hospital,17.92266521,83.36154449,515301,"Anadapuram Road, Podugupalem, Chandaka, Anandapuram, Visakhapatnam District, Andhra Pradesh, India"
6,Andhra Pradesh,East Godavari,Pedapudi,G Mamidada,332182,hospital,near ramalayam,04-Sep-19,Medical ,Bedded Hospital,16.93406057,82.07106745,533343,"Gollamamidada, Pedapudi, Kakinada District, Andhra Pradesh, 533343, India"
7,Andhra Pradesh,Prakasam,Chadrasekarapuram,Chandrasekharapuram,204038,bedded hospital,chandrasekharapuram bedded hospital,28-Aug-19,Medical ,Bedded Hospital,15.18076333,79.27511,523112,"Primary Health Centre, Chandra Sekhara Puram, NH167B, Chandrasekharapuram, Pamur, Prakasam District, Andhra Pradesh, 523112, India"
8,Andhra Pradesh,Y S R Kadapa,Chapadu,Chapadu,205706,phcbededhospital,chapadugpchapadumandal,04-Sep-19,Medical ,Bedded Hospital,14.72549561,78.65955548,516356,"PHC, Chapadu, Chapadu, Chapad, YSR District, Andhra Pradesh, 516356, India"
9,Andhra Pradesh,Srikakulam,Sompeta,Chikatisompeta,221548,community health center,opposite R & B road,12-Sep-19,Medical ,Community Health Centre,18.9479288,84.58372138,532284,"Sompeta, Srikakulam District, Andhra Pradesh, 532284, India"
10,Andhra Pradesh,Prakasam,Chimakurthi,Chimakurthy,223780,community health centre,chimakurthy,08-Sep-19,Medical ,Community Health Centre,15.58463717,79.87473128,523226,"Chimakurthi, Prakasam District, Andhra Pradesh, 523226, India"
11,Andhra Pradesh,Prakasam,Cumbum,Cumbum,237574,community health centre,cumbum,04-Sep-19,Medical ,Community Health Centre,15.58468885,79.11593593,523333,"Cumbum, Prakasam District, Andhra Pradesh, 523333, India"
12,Andhra Pradesh,Srikakulam,Saravakota,Cheedipudi,212547,Government Homeo Hospital,Cheedipudi,10-Aug-19,Medical ,Community Health Centre,18.543635,84.015715,532400,"Budithi, Saravakota, Srikakulam District, Andhra Pradesh, 532400, India"
13,Andhra Pradesh,East Godavari,Allavaram,Chavalivaripeta,211592,Bedded Hospital,Allavaram,12-Sep-19,Medical ,Bedded Hospital,16.50961823,81.9883542,533217,"Government Hospital,Allavaram, Amalapuram - Bendamurlanka Road, Allavaram, East Godavari District, Andhra Pradesh, 533217, India"
14,Andhra Pradesh,Chittoor,Tirupati Rural,Cherlopalle,214773,bedded hospatal,cherlopalli,27-Aug-19,Medical ,Bedded Hospital,13.61549361,79.36780209,517502,"Surendra Multi Speciality Hospitals, S.V.University Road, Narasingapuram, Chittoor, Tirupati District, Andhra Pradesh, 517502, India"
15,Andhra Pradesh,Anantapur,Dharmavaram,Chintalapalli,227342,Govt Veterinary Hospital,Chinthalapalli,28-Aug-19,Medical ,Bedded Hospital,14.50346039,77.70311297,533244,"Garadampalle, Dharmavaram, Sri Sathya Sai District, Andhra Pradesh, India"
16,Andhra Pradesh,West Godavari,Chintalapudi,Chintalapudi,227367,Govt Hospital  PHC,Chintalapudi ,03-Sep-19,Medical ,Bedded Hospital,17.07065516,80.9837958,534460,"Lord Shiva temple, Eluru - Medisettivaripalem Road, Recherla, Chintalapudi, Eluru District, Andhra Pradesh, 534460, India"
17,Andhra Pradesh,Visakhapatnam,Chintapalle,Chintapalli,227499,Community Health Center,Chintapalli,22-Aug-19,Medical ,Community Health Centre,17.8703858,82.35087991,531300,"Cherugampakalu, Bourutu, Chintapalle, Andhra Pradesh, 531300, India"
18,Andhra Pradesh,Visakhapatnam,Chintapalle,Chintapalli,227499,Community  Health center ,Chinthapalli ,30-Aug-19,Medical ,Community Health Centre,17.87034,82.35099333,531300,"Cherugampakalu, Bourutu, Chintapalle, Andhra Pradesh, 531300, India"
19,Andhra Pradesh,Srikakulam,Ponduru,Ponduru,860882,bedded hospital,ponduru,14-Aug-19,Medical ,Bedded Hospital,18.35158123,83.7598503,532168,"Ponduru, Srikakulam District, Andhra Pradesh, 532168, India"
20,Andhra Pradesh,Visakhapatnam,Bheemunipatnam,Dakamarri,242307,Rotary Abhaya community Health center,Modavalasa,01-Aug-19,Medical ,Community Health Centre,17.96711,83.41973833,535005,"NH26, Muddadapeta, Bheemunipatnam, Visakhapatnam District, Andhra Pradesh, 535005, India"
21,Andhra Pradesh,Prakasam,Ballikuruva,Chinaambadipudi,224196,ayurveda hospital ,chinaambadipudi,07-Sep-19,Medical ,Community Health Centre,15.97383707,80.01012838,533106,"Addanki - Santhamaguluru Road, Guntupalli, Chinna Ambadipudi, Ballikurava, Bapatla District, Andhra Pradesh, India"
22,Andhra Pradesh,West Godavari,Bheemavaram,Chinamiram,224398,hospital,juvalapalem road,06-Sep-19,Medical ,Bedded Hospital,16.54125889,81.49694395,534204,"Bhimavaram Hospitals, Bhimavaram - Gudivada Road, Pedda Amiram, Bhimavaram, West Godavari District, Andhra Pradesh, 534204, India"
23,Andhra Pradesh,Guntur,Prathipadu,Prathipadu,865969,Community Hospital,Prathipadu,06-Aug-19,Medical ,Community Health Centre,16.18048833,80.33254667,522019,"Community Health Centre, Guntur - Parchuru Road, Prathipadu, Guntur District, Andhra Pradesh, 522019, India"
24,Andhra Pradesh,West Godavari,Penumantra,Garuvu,349737,community health centre,garuvu,25-Aug-19,Medical ,Community Health Centre,16.65294856,81.64152004,534124,"Narsapuram - Aswaraopeta Road, Pamanivallapalem, Penumantra, West Godavari District, Andhra Pradesh, 534124, India"
25,Andhra Pradesh,West Godavari,Penugonda,Cherukuwada,214957,communityhealthcentre,cherukawada,20-Aug-19,Medical ,Community Health Centre,16.66107836,81.75037082,534320,"Malapalle, Cherukuvada, Penugonda, West Godavari District, Andhra Pradesh, 534320, India"
26,Andhra Pradesh,Guntur,Nuzendla,Chintalacheruvu,227282,bedde hospital ,chintalacheruvu ,24-Aug-19,Medical ,Bedded Hospital,15.95855181,79.61531093,522659,"Chintalacheruvu, Nuzendla, Palnadu District, Andhra Pradesh, 522659, India"
27,Andhra Pradesh,Krishna,Gannavaram,China Outapalli,224163,bedded hospital,chinna avutapalli,27-Aug-19,Medical ,Bedded Hospital,16.554501,80.83112113,521286,"Dr. Pinnamaneni Siddhartha Institute Of Medical Sciences Hospital, NH16, Kesarapalle, Chinna Avutapalli, Gannavaram, Krishna District, Andhra Pradesh, 521286, India"
28,Andhra Pradesh,Krishna,Vatsavai,Gopinenipalem,373494,Community health center,Gopinenipalem,05-Sep-19,Medical ,Community Health Centre,16.93279103,80.17195996,521193,"Gopinenipalem, Vatsavai, NTR District, Andhra Pradesh, 521193, India"
29,Andhra Pradesh,Chittoor,Gudipala,GOPALA PURAM,371525,CMC BEDDED HOSPITAL,gopalapuram,14-Aug-19,Medical ,Bedded Hospital,13.13329497,79.11357354,517132,"Christian Medical College Hospital, Chennai To Kurnool Road, Gopalapuram, Gudipala, Chittoor District, Andhra Pradesh, 517132, India"
30,Andhra Pradesh,Anantapur,Tadpatri,Chukkalur,235499,Bedded Hospital,Chukkalur,22-Aug-19,Medical ,Bedded Hospital,14.94697541,77.98252328,515415,"PHC,Chukkalur, Post Office,Chukkalur, Tadpatri, Anantapur District, Andhra Pradesh, 515415, India"
31,Andhra Pradesh,Prakasam,Parchur,Adusumalli,14065,Health Centre,Adusmalli,24-Sep-19,Medical ,Community Health Centre,16.022085,80.31224833,522235,"Adusumalli, Adusumalli RV, Parchur, Bapatla District, Andhra Pradesh, 522235, India"
32,Andhra Pradesh,Anantapur,Bukkapatnam,Agraharam,15612,Community Health Center,Agraharam,15-Aug-19,Medical ,Community Health Centre,14.27215985,77.97037498,515154,"Pamudurti, Bukkapatnam, Sri Sathya Sai District, Andhra Pradesh, 515154, India"
33,Andhra Pradesh,Guntur,Gurazala,Daida,241922,Helth centar,Daida road,05-Sep-19,Medical ,Community Health Centre,16.63751667,79.60312833,522415,"Dadao, Gurazala, Palnadu District, Andhra Pradesh, India"
34,Andhra Pradesh,West Godavari,AKIVIDU,Ajjamurugaruvu,20242,star of hope hospital ,mainroad,08-Sep-19,Medical ,Community Health Centre,16.58226107,81.39273473,534235,"NH165, akividu triangle, Ajjamuru, Akividu, West Godavari District, Andhra Pradesh, 534235, India"
35,Andhra Pradesh,Anantapur,Gooty,Gooty RS,371174,Govt Hospital,Gooty RS,06-Oct-19,Medical ,Community Health Centre,15.12319833,77.63407833,515401,"Gooty - Kalaburgi Highway, Gooty, Anantapur District, Andhra Pradesh, 515401, India"
36,Andhra Pradesh,Anantapur,Narpala,Gugudu,381439,Hospital,Gugudu,20-Aug-19,Medical ,Bedded Hospital,14.67211738,77.86017522,515425,"Gugudu, Narpala, Anantapur District, Andhra Pradesh, 515425, India"
37,Andhra Pradesh,Guntur,Cherukupalle,Gullapalli,383468,Bedded hospital,Gullapalli,10-Aug-19,Medical ,Bedded Hospital,16.05104871,80.68268365,522309,"Sri Ramachandra Nursing Home, Cherukupalli - Bhattiprolu, Gullapalli, Cherukupalle H/O Arumbaka, Guntur District, Andhra Pradesh, 522309, India"
38,Andhra Pradesh,Y S R Kadapa,Lakkireddipalle,Devalampalli,262953,BeddedHospal,Devalampalli,05-Sep-19,Medical ,Bedded Hospital,14.13527264,78.662398,516257,"Grandhevandaipalle, Agrharamu, Lakkireddipalle, Annamayya District, Andhra Pradesh, 516257, India"
39,Andhra Pradesh,Srikakulam,Seethampeta,Devanapuram,263204,Health sub center building,Devanapuram,05-Sep-19,Medical ,Community Health Centre,18.70490533,83.81237824,532443,"Devanapuram, Seethampeta, Parvathipuram Manyam District, Andhra Pradesh, 532443, India"
40,Andhra Pradesh,Prakasam,Karamchedu,Daggubadu,240838,Community Health Centre,Daggubadu,13-Sep-19,Medical ,Community Health Centre,15.87167101,80.20894376,523169,"Parchuru - Inkollu Road, Maddukur, Vankayalapadu, Nuthalapdu RV, Inkollu, Bapatla District, Andhra Pradesh, 523169, India"
41,Andhra Pradesh,Nellore,Venkatachalam,Gudlurivaripalem,381086,hospetal,gvr palem,05-Sep-19,Medical ,Community Health Centre,14.23628148,80.03196888,524321,"Panjurupadu, Venkatachalam, Sri Potti Sriramulu Nellore District, Andhra Pradesh, 524321, India"
42,Andhra Pradesh,Guntur,Karempudi,Chintapalli,227505,Community Centre ,Temple road,05-Aug-19,Medical ,Community Health Centre,16.45438623,79.74641459,535204,"Chintapalli, Karempudi, Palnadu District, Andhra Pradesh, India"
43,Andhra Pradesh,Anantapur,Dharmavaram,Darsimala,252334,Hospital,The doctor Bedded hospital Hospital Darsimala,20-Aug-19,Medical ,Bedded Hospital,14.37341273,77.81863672,515671,"Dharmavaram, Sri Sathya Sai District, Andhra Pradesh, 515671, India"
44,Andhra Pradesh,East Godavari,Allavaram,Allavaram,26465,Community Health center,Allavaram,31-Aug-19,Medical ,Community Health Centre,16.50095613,81.98178145,533217,"Amalapuram - Bendamurlanka Road, Godilanka, Allavaram, Dr. B. R. Ambedkar Konaseema District, Andhra Pradesh, 533217, India"
45,Andhra Pradesh,Kurnool,Alur,Alur,27287,Community Health Centre Alur,Alur Guntakal Road,26-Sep-19,Medical ,Community Health Centre,15.39562059,77.2257002,518395,"Alur - Holagunda - Honnur Road, Aluru, Alur, Kurnool District, Andhra Pradesh, 518395, India"
46,Andhra Pradesh,Krishna,Vatsavai,Pollampalli,860411,Community health center,Polampalli,24-Aug-19,Medical ,Community Health Centre,17.00752952,80.1870309,521402,"Dubbakupalle, Vatsavai, NTR District, Andhra Pradesh, 521402, India"
47,Andhra Pradesh,Y S R Kadapa,S A Kasinayana,Amagampalli,27619,community health,Mydukur ROAD ,07-Sep-19,Medical ,Community Health Centre,14.91681167,78.90184333,516193,"NH167B, Amagampalle, Sri Avadhutha Kasinayana, YSR District, Andhra Pradesh, India"
48,Andhra Pradesh,Y S R Kadapa,Porumamilla,Porumamilla,863092,Bedded hospital,Porumamilla,04-Sep-19,Medical ,Bedded Hospital,15.00455571,78.98974723,516193,"Porumamilla, YSR District, Andhra Pradesh, 516193, India"
49,Andhra Pradesh,East Godavari,Prathipadu,Prathipadu,865968,community health center,Prathipadu,21-Aug-19,Medical ,Community Health Centre,17.23344167,82.18595,533432,"Community Health Centre, Prathipadu, Samarlakota - Prathipadu Road, Kirlampudi, East Godavari, Kakinada District, Andhra Pradesh, 533432, India"
50,Andhra Pradesh,West Godavari,Thallapudi,Annadevarapeta,40455,Bedded hospital ,Anndevarapeta,01-Aug-19,Medical ,Bedded Hospital,17.1225809,81.61720952,534341,"Annadevarapeta, Tallapudi, East Godavari District, Andhra Pradesh, 534341, India"
51,Andhra Pradesh,Y S R Kadapa,Pulivendla,Pulivendula,869079,Hospital,pulivendla,20-Aug-19,Medical ,Community Health Centre,14.42488333,78.23153167,516390,"Pulivendla, YSR District, Andhra Pradesh, 516390, India"
52,Andhra Pradesh,West Godavari,Palacole,Poolapalli,861631,bedded hospital ,poolalalli,14-Aug-19,Medical ,Bedded Hospital,16.51968262,81.7124659,534260,"Pullapalle, Palakollu, Palacole, West Godavari District, Andhra Pradesh, 534260, India"
53,Andhra Pradesh,Krishna,Vijayawada Rural,Prasadampadu,865314,Best hospital,near Andra bank,22-Aug-19,Medical ,Bedded Hospital,16.52081833,80.69198167,521108,"Best Hospital, NH16, Vijayawada (Rural), NTR District, Andhra Pradesh, 521108, India"
54,Andhra Pradesh,Kurnool,Kodumur,Pyalakurthy,882837,Primary health Sub Centre,Pyalakurthy,27-Aug-19,Medical ,Community Health Centre,15.72788839,77.8160561,523002,"Pyalakurti, Kodumur, Kurnool District, Andhra Pradesh, India"
55,Andhra Pradesh,Visakhapatnam,Araku Valley,Arakuvalley,43506,beaded hospitals ,Araku valley ,04-Sep-19,Medical ,Bedded Hospital,18.32432498,82.88547613,531151,"Thamalguda, Araku Valley, Alluri Sitharama Raju District, Andhra Pradesh, 531151, India"
56,Andhra Pradesh,Chittoor,Punganur,Punganur Rural,870132,Govt Hospital Punganur,"Govt Hospital
Punganur",04-Sep-19,Medical ,Bedded Hospital,13.36160759,78.55981026,517247,"Punganuru - Kolar Road, Punganuru, Punganur, Chittoor District, Andhra Pradesh, 517247, India"
57,Andhra Pradesh,Visakhapatnam,Bheemunipatnam,Singannabanda,994533,ANM SUB CENTER ,Singannabanda,01-Aug-19,Medical ,Bedded Hospital,17.96371,83.402305,531162,"Singanabanda, Bheemunipatnam, Visakhapatnam District, Andhra Pradesh, 531162, India"
58,Andhra Pradesh,Visakhapatnam,Bheemunipatnam,Singannabanda,994533,GITAM INSTITUTE OF MDICAL SCIENCES,Rajapulova,01-Aug-19,Medical ,Community Health Centre,17.96609167,83.41987,535005,"NH26, Muddadapeta, Bheemunipatnam, Visakhapatnam District, Andhra Pradesh, 535005, India"
59,Andhra Pradesh,Srikakulam,Srikakulam,Ragolu,886706,GEMS hospital,ragolu road,04-Sep-19,Medical ,Bedded Hospital,18.35076398,83.90363277,532001,"Ravipadu, Srikakulam, Srikakulam District, Andhra Pradesh, 532001, India"
60,Andhra Pradesh,Guntur,Veldurthi,Sirigiripadu,997441,hospital,Srisailam Road,28-Aug-19,Medical ,Bedded Hospital,16.30986457,79.32932421,522613,"PHC, Srigiripadu, Starting Of Village, Veldurthi, Palnadu District, Andhra Pradesh, 522613, India"
61,Andhra Pradesh,Krishna,Avanigadda,Avanigadda,53809,Community Helth Centre ,Avanigadda ,27-Aug-19,Medical ,Community Health Centre,16.01859986,80.91406436,521121,"PPU Avanigadda, Gudivada - Challapalli - T.Kothapalem Road, Avanigadda, Krishna District, Andhra Pradesh, 521121, India"
62,Andhra Pradesh,Kurnool,Devanakonda,Devanakonda,263171,Primary health centre Devanakonda,Near Andhra Pragathi Grameena Bank,27-Aug-19,Medical ,Bedded Hospital,15.53907469,77.54673575,518465,"Maddikera - Pattikonda - Devanakonda Road, Kanakadinne, Pattikonda, Kurnool District, Andhra Pradesh, 518465, India"
63,Andhra Pradesh,Visakhapatnam,Gangaraju Madugula,Solabham,1003336,community health center ,solabham ,08-Sep-19,Medical ,Community Health Centre,17.97223379,82.58338287,531029,"Tatalagondi, Solabham, G.Madugula, Andhra Pradesh, 531029, India"
64,Andhra Pradesh,West Godavari,Nidadavole,Singavaram,994950,Community health centre,singavaram near nidadavole,21-Aug-19,Medical ,Community Health Centre,16.90404033,81.67100139,534301,"Nidadavolu, Nidadavole, East Godavari District, Andhra Pradesh, 534301, India"
65,Andhra Pradesh,Vizianagaram,Gajapathinagaram,Gajapathinagaram,337268,bedding hospital,gajapathinagaram,06-Sep-19,Medical ,Bedded Hospital,18.27895366,83.33820591,535270,"Community Health centre, Gajapathinagaram, Opposite State bank Of India, Gajapathinagaram, Vizianagaram District, Andhra Pradesh, 535270, India"
66,Andhra Pradesh,Krishna,Vuyyuru,Gandigunta,341262,Bedded hospital,Gandigunta,27-Aug-19,Medical ,Bedded Hospital,16.38151099,80.84988878,521165,"Telaprolu - Vuyyuru - Valluru Road, Viravalli, Vuyyuru, Krishna District, Andhra Pradesh, 521165, India"
67,Andhra Pradesh,Visakhapatnam,Payakaraopeta,Srirampuram,1011043,Government hospital,Srirampuram road,02-Sep-19,Medical ,Community Health Centre,17.3150629,82.57349544,531126,"Sriramapuram, Payakaraopeta, Anakapalli District, Andhra Pradesh, 531126, India"
68,Andhra Pradesh,Krishna,Gannavaram,Gannavaram,345426,community health center,gannavaram,27-Aug-19,Medical ,Community Health Centre,16.53914988,80.79944909,521286,"NH16, Kesarapalle, Chinna Avutapalli, Gannavaram, Krishna District, Andhra Pradesh, 521286, India"
69,Andhra Pradesh,Krishna,Machilipatnam,Garaladibba,346766,Beded Hospital ,Machilipatnam ,26-Sep-19,Medical ,Bedded Hospital,16.17797317,81.13786038,521001,"Ullankapalem, Machilipatnam, Krishna District, Andhra Pradesh, 521001, India"
70,Andhra Pradesh,Chittoor,Chandragiri,Chandragiri,203648,Modal Rural health research unit,Chandragiri,28-Aug-19,Medical ,Bedded Hospital,13.58847878,79.31656436,517100,"Agraharam, Chandragiri, Tirupati District, Andhra Pradesh, 517100, India"
71,Andhra Pradesh,Anantapur,Tadimarri,Tadimarri,1024785,Govt hospital,Tadimarri,08-Aug-19,Medical ,Bedded Hospital,14.55994201,77.85757772,515631,"Tadimarri, Sri Sathya Sai District, Andhra Pradesh, 515631, India"
72,Andhra Pradesh,Prakasam,Giddaluru,Giddalur,361282,Bedded hospotal,Giddalur,22-Aug-19,Medical ,Bedded Hospital,15.36898021,78.91953237,523357,"Ppu Giddaluru, SH394, Singampalle, Sanjivaraopeta, Giddalur, Prakasam District, Andhra Pradesh, 523357, India"
73,Andhra Pradesh,Anantapur,Chenne Kothapalle,Chennekothapalle,214276,community health centre,Medical officer,16-Aug-19,Medical ,Community Health Centre,14.27094312,77.62527201,515100,"Nyamaddala, Chennekothapalle, Sri Sathya Sai District, Andhra Pradesh, 515100, India"
74,Andhra Pradesh,West Godavari,Palakoderu,Goraganamudi,374006,Sri Krishnamraju memorial Hospital,Main road,05-Sep-19,Medical ,Bedded Hospital,16.55084833,81.57363167,534203,"NH165, Goragannamudi, Palacoderu, West Godavari District, Andhra Pradesh, 534203, India"
75,Andhra Pradesh,Kurnool,Kodumur,Gorantla,374340,Primary health Sub Centre,Gorantla,26-Aug-19,Medical ,Community Health Centre,15.63040431,77.83618542,522034,"Chart road, Gorantla, Kodumur, Kurnool District, Andhra Pradesh, India"
76,Andhra Pradesh,Kurnool,Panyam,Panyam,821295,community health centre,near BC colony,19-Aug-19,Medical ,Community Health Centre,15.51969152,78.34803795,518112,"Panyam, Nandyal District, Andhra Pradesh, 518112, India"
77,Andhra Pradesh,East Godavari,Gokavaram,Gokavaram,367257,Community  Health centre,Gokavaram,01-Sep-19,Medical ,Community Health Centre,17.25747992,81.85032839,533286,"CHC, Gokavaram, NH516E, Kotturu, Gokavaram, East Godavari District, Andhra Pradesh, 533286, India"
78,Andhra Pradesh,Guntur,Mangalagiri,Chinakakani,224303,Bedded hospital,chinakakani,16-Aug-19,Medical ,Bedded Hospital,16.41442971,80.55790059,522500,"NRI Academy of Sciences, NH16, Chinakakani, Mangalagiri, Guntur District, Andhra Pradesh, 522500, India"
79,Andhra Pradesh,Kurnool,Gonegandla,Gonegandla,370719,Bedded Hospital,gonegandla,02-Aug-19,Medical ,Bedded Hospital,15.71040908,77.59374569,518463,"Primary Health Centre, Kodumur - Yemmiganur Road, Gonegandla, Kurnool District, Andhra Pradesh, 518463, India"
80,Andhra Pradesh,East Godavari,Ambajipeta,Ambajipeta,29937,Bedded Hospital,Ambajipets,29-Aug-19,Medical ,Bedded Hospital,16.58534667,81.94923333,533221,"Ambajipeta, Dr. B. R. Ambedkar Konaseema District, Andhra Pradesh, 533221, India"
81,Andhra Pradesh,Vizianagaram,Jiyyamma Valasa,Chinamerangi,224393,30 Beds Hospital,Chinamerangi,12-Sep-19,Medical ,Bedded Hospital,18.83684417,83.55012901,535526,"Pedamerangi Junction - Jiyyammavalasa - Gadisingupuram Road, Chinna Tumbali, Alluvada, Jiyyammavalasa, Parvathipuram Manyam District, Andhra Pradesh, 535526, India"
82,Andhra Pradesh,West Godavari,Gopalapuram,Gopalapuram,371603,community health centre,gopalapuram,05-Sep-19,Medical ,Community Health Centre,17.10020939,81.54970855,534316,"Government Hospital, Prakkilanka - Koyyalagudem Road, Gopalapuram, West Godavari District, Andhra Pradesh, 534316, India"
83,Andhra Pradesh,Visakhapatnam,Bheemunipatnam,Patha Mulakuddu,835685,Anits hospital,Sanghivalasa,04-Sep-19,Medical ,Bedded Hospital,17.9225,83.42604833,531162,"Santapeta, Tagarapuvalasa, Bheemunipatnam, Visakhapatnam District, Andhra Pradesh, 531162, India"
84,Andhra Pradesh,East Godavari,Anaparthi,Anaparthi,36925,hospital,near panchayathi office,27-Aug-19,Medical ,Bedded Hospital,16.93310738,81.95613027,533342,"Government Hospital,Anaparthy, SH17, Bikkavolu, Anaparthy, East Godavari District, Andhra Pradesh, 533342, India"
85,Andhra Pradesh,Anantapur,Obuladevaracheruvu,Gownipalli,379318,Community Health Center,Gownipalli,07-Aug-19,Medical ,Community Health Centre,13.98042045,77.91927801,515561,"Hindupur - Kadiri Road, Allapalle Quarters, Obuladevaracheruvu, Sri Sathya Sai District, Andhra Pradesh, 515561, India"
86,Andhra Pradesh,Vizianagaram,Gummalakshmipuram,Gummalaxmipuram,384196,CHC,GL Puram,13-Sep-19,Medical ,Community Health Centre,18.97574645,83.66014401,535001,"Gumma Laxmipuram Road, Alavada, Gumma Lakshmipuram, Gummalakshmipuram, Parvathipuram Manyam District, Andhra Pradesh, India"
87,Andhra Pradesh,Guntur,Veldurthi,Gangalakunta,343119,hospital,gangalakunta,31-Aug-19,Medical ,Community Health Centre,16.31315462,79.28827813,522613,"Gangulagunta, Veldurthi, Palnadu District, Andhra Pradesh, 522613, India"
88,Andhra Pradesh,Guntur,Gurazala,Gurzala,388661,hospital,k road,28-Aug-19,Medical ,Bedded Hospital,16.55601579,79.63751502,522415,"sri patha pateshwari amma vari temple, Nekarikallu - Gurazala Road, Guruzala, Gurazala, Palnadu District, Andhra Pradesh, 522415, India"
89,Andhra Pradesh,Chittoor,Mandanpalle,Arogyavaram,46768,Bedded hospital,Arogyavaram,11-Aug-19,Medical ,Bedded Hospital,13.59720008,78.52884635,517325,"Anantpur - Madanapalle - Tirupathi - Tirutani - Chennai, Santinagar, Madanapalle, Annamayya District, Andhra Pradesh, 517325, India"
90,Andhra Pradesh,Kurnool,Aspari,Aspari,49858,primary health center Aspari,Near Police station,27-Aug-19,Medical ,Bedded Hospital,15.47847615,77.3873009,518347,"Government hospital, Aspari, Adoni Division, Aspari, Kurnool District, Andhra Pradesh, 518347, India"
91,Andhra Pradesh,Krishna,Gudlavalleru,Gudlavalleru,381061,bedded hospital,opp  SBI BANK,19-Aug-19,Medical ,Bedded Hospital,16.3489777,81.04965258,521356,"Gudlavalleru, Krishna District, Andhra Pradesh, 521356, India"
92,Andhra Pradesh,Visakhapatnam,Araku Valley,Guggudu,381404,community health center ,guggudu ,09-Sep-19,Medical ,Community Health Centre,18.25281532,82.88782231,531149,"Manjuguda, Doraguda, Araku Valley, Alluri Sitharama Raju District, Andhra Pradesh, 531149, India"
93,Andhra Pradesh,Guntur,Dachepalle,Dachepalli,239111,hospital,near bridge,24-Aug-19,Medical ,Bedded Hospital,16.59557649,79.7381057,522414,"Primary Health Centre, Dachepalli, Dachepalli, Guntur, Palnadu District, Andhra Pradesh, 522414, India"
94,Andhra Pradesh,Anantapur,Gorantla,Gorantla,374339,Hospital,The doctor Bedded hospital Gorantla ,12-Aug-19,Medical ,Bedded Hospital,13.98340536,77.77401296,515231,"Hindupur - Kadiri Road, Gorantla, Sri Sathya Sai District, Andhra Pradesh, 515231, India"
95,Andhra Pradesh,Visakhapatnam,Araku Valley,Siragam,996897,community health center ,siragam ,09-Sep-19,Medical ,Community Health Centre,18.286981,82.85240474,531151,"Sirgam, Araku Valley, Andhra Pradesh, 531151, India"
96,Andhra Pradesh,Visakhapatnam,Chodavaram,Chodavaram,230641,Govt hospital,Kothuru,01-Aug-19,Medical ,Bedded Hospital,17.82666754,82.94067525,531036,"Bangarampalem, Pakirsahebpeta, Chodavaram, Anakapalli District, Andhra Pradesh, 531036, India"
97,Andhra Pradesh,Vizianagaram,Cheepurupalle,Gollalamulagam,368773,community health center,"Gollalamulagam, cheepurupalli",03-Sep-19,Medical ,Community Health Centre,18.23370761,83.61364741,535001,"Gollamulagama, Cheepurupalle, Vizianagaram District, Andhra Pradesh, India"
98,Andhra Pradesh,Visakhapatnam,Pedabayalu,Gomangi,369834,health centre ,gomangi,09-Sep-19,Medical ,Community Health Centre,18.20991682,82.4936868,530001,"Ganni, Peda Bayalu, Andhra Pradesh, India"
99,Andhra Pradesh,Chittoor,Vijaya Puram,Sriharipuram,1010299,community heath center,NK road,25-Aug-19,Medical ,Community Health Centre,13.23115333,79.76860167,517586,"Mangalam, Mahavirapuram, Vijayapuram, Chittoor District, Andhra Pradesh, 517586, India"
100,Andhra Pradesh,Kurnool,Srisailam,Sundipenta Srisailam Project,1018257,community health centre,near church,20-Aug-19,Medical ,Community Health Centre,16.07129269,78.91008919,518102,"Srisailam, Nandyal District, Andhra Pradesh, 518102, India"
101,Andhra Pradesh,Krishna,Gudur,Guduru,381278,CHC,guduru,03-Aug-19,Medical ,Community Health Centre,16.21465619,81.07744878,521149,"Government Hospital, Guduru, NH65, Nidumolu, Guduru, Krishna District, Andhra Pradesh, 521149, India"
102,Andhra Pradesh,Kurnool,Owk,Owk,797042,Community Health centre,Main Road,10-Aug-19,Medical ,Bedded Hospital,15.20988493,78.11568422,532264,"APSRTC BUS STAND , OWK, NH544D, Owk, Owk Mandal, Nandyal District, Andhra Pradesh, India"
103,Andhra Pradesh,Chittoor,Pedda Panjani,Sivadi,1000586,JMJ HOSPITAL ,Sivadi ,29-Aug-19,Medical ,Bedded Hospital,13.22473498,78.6194304,517432,"Sankarayalapeta, Peddapanjani, Chittoor District, Andhra Pradesh, India"
104,Andhra Pradesh,Chittoor,Sodam,Sodam,1002222,community health centre,"maliliit rad,sodam",28-Aug-19,Medical ,Community Health Centre,13.54873667,78.90682037,517123,"Madireddipalle, Sodam, Chittoor District, Andhra Pradesh, 517123, India"
105,Andhra Pradesh,Chittoor,Veduru Kuppam,Pachikapallam,800264,Bessed Hospital ,Pachikapalam,16-Aug-19,Medical ,Bedded Hospital,13.44733,79.36924696,517569,"Pachchikapallampeta, Pachchikapallam, Vedurukuppam, Chittoor District, Andhra Pradesh, 517569, India"
106,Andhra Pradesh,Y S R Kadapa,T Sundupalle,T.Sundupalle,1024322,Bedded Hospital,T Sundupalli,17-Aug-19,Medical ,Bedded Hospital,13.98157667,78.91625,516130,"Rayachoti - T.Sundupalle - Pincha Road, Pichiguntapalle, T. Sundupalle, T Sundupalle, Annamayya District, Andhra Pradesh, 516130, India"
107,Andhra Pradesh,Prakasam,Darsi,Darsi,252326,chs,DARSI,05-Sep-19,Medical ,Community Health Centre,15.77377594,79.67841835,523247,"Community Health centre, Darsi, Podili - Vinukonda Road, Darsi, Prakasam District, Andhra Pradesh, 523247, India"
108,Andhra Pradesh,Chittoor,Palamaner,Palamaner,808956,Area Hospital ,Palamaner ,01-Oct-19,Medical ,Bedded Hospital,13.19889286,78.74763929,517408,"Palamaneru, Palamaner, Chittoor District, Andhra Pradesh, 517408, India"
109,Andhra Pradesh,Chittoor,Palasamudram,Palasamudram,809456,Bedded hospital ,Palasamudram,09-Sep-19,Medical ,Bedded Hospital,13.20898354,79.39430416,517599,"Vengalrajukuppam, Palasamudram, Chittoor District, Andhra Pradesh, 517599, India"
110,Andhra Pradesh,Prakasam,Komarolu,Suravaripalli,1020106,suravaripalli,suravaripalli,11-Sep-19,Medical ,Community Health Centre,15.26131754,78.96903478,523373,"Krishnampalle, Komarolu, Prakasam District, Andhra Pradesh, 523373, India"
111,Andhra Pradesh,Nellore,Sullurpeta,Sulluru Japthikattubadi,1016012,Community Health center,Sullurupet,21-Aug-19,Medical ,Community Health Centre,13.70069745,80.01895806,524121,"AVPP Area Hospital, SHAR Bypass Circle, Sullurpeta, Tirupati District, Andhra Pradesh, 524121, India"
112,Andhra Pradesh,Anantapur,Vidapanakal,Palthuru,812986,community health centre ,palthur ,16-Aug-19,Medical ,Community Health Centre,14.97711944,77.15241303,516355,"Palturu, Vidapanakal, Anantapur District, Andhra Pradesh, India"
113,Andhra Pradesh,West Godavari,Achanta,Achanta,10406,community health centre,achanta,04-Sep-19,Medical ,Community Health Centre,16.6023843,81.8004891,534123,"Marteru - Achanta - koderu road, Achanta, West Godavari District, Andhra Pradesh, 534123, India"
114,Andhra Pradesh,Visakhapatnam,Anandapuram,Anandapuram,36246,PH centre,Village end,17-Aug-19,Medical ,Bedded Hospital,17.89389678,83.37165785,530052,"Itlavanipalem, Anandapuram, Visakhapatnam District, Andhra Pradesh, 530052, India"
115,Andhra Pradesh,Anantapur,Singanamala,Singanamala,994496,community Health center,singanamala,16-Aug-19,Medical ,Community Health Centre,14.80315301,77.71815857,515435,"Government Hospital,Singanamala, Near Kgbv School, Singanamala, Anantapur District, Andhra Pradesh, 515435, India"
116,Andhra Pradesh,East Godavari,Tallarevu,Tallarevu,1029369,community health center,Tallarevu,20-Aug-19,Medical ,Community Health Centre,16.78614392,82.23252309,533463,"CHC,Tallarevu, , Sitarampuram, Thallarevu, East Godavari District, Andhra Pradesh, 533463, India"
117,Andhra Pradesh,Srikakulam,Sompeta,Sompeta urban jsompeta,1004545,community health center,opposite bus stand,06-Sep-19,Medical ,Community Health Centre,18.948042,84.58380069,532284,"Sompeta, Srikakulam District, Andhra Pradesh, 532284, India"
118,Andhra Pradesh,Visakhapatnam,Koyyuru,Rajendrapalem,892575,bedded hospital ,Rajendrapalem ,07-Sep-19,Medical ,Bedded Hospital,17.6560328,82.2177792,530001,"Suramdarapalem, Koyyuru, Andhra Pradesh, India"
119,Andhra Pradesh,East Godavari,Alamuru,Alamuru,24101,CHC,Near main road ,05-Sep-19,Medical ,Community Health Centre,16.788493,81.8880411,533233,"CHC, Aalamuru, Mandapeta - Jonnada Road, Alamuru, East Godavari District, Andhra Pradesh, 533233, India"
120,Andhra Pradesh,West Godavari,Penugonda,Ramannapalem,900127,beded hospital,ramannapalem,21-Aug-19,Medical ,Bedded Hospital,16.65483235,81.79634064,534324,"Ramannapalem, Penugonda, West Godavari District, Andhra Pradesh, 534324, India"
121,Andhra Pradesh,Kurnool,Atmakur,Atmakur,52139,Community health centre,on court road near Gareeb nagar,20-Aug-19,Medical ,Community Health Centre,15.87622645,78.57587039,518422,"Atmakur, Nandyal District, Andhra Pradesh, 518422, India"
122,Andhra Pradesh,East Godavari,Addateegala,Addateegala,12115,community health centre,addateegal,27-Aug-19,Medical ,Community Health Centre,17.48007851,82.02234266,533428,"Addateegala, Andhra Pradesh, 533428, India"
123,Andhra Pradesh,Kurnool,Kowthalam,Badinehal,63571,BEDDED HOSPITAL,BADINEHAL,01-Aug-19,Medical ,Bedded Hospital,15.71682665,77.16112883,518344,"Badanehalu, Kowthalam, Kurnool District, Andhra Pradesh, 518344, India"
124,Andhra Pradesh,Nellore,Allur,Allur,26743,medical ,village entrance,20-Aug-19,Medical ,Bedded Hospital,14.68126559,80.04917144,524315,"Community Health Centre, Allur, Sri Potti Sriramulu Nellore District, Andhra Pradesh, 524315, India"
125,Andhra Pradesh,Prakasam,Addanki,Addanki,12095,govt hospital,addanki town,14-Aug-19,Medical ,Bedded Hospital,15.81061149,79.97050371,523201,"Bhavani centre, Addanki, Bapatla District, Andhra Pradesh, 523201, India"
126,Andhra Pradesh,Chittoor,Tirupati Urban,AKKARAMPALLE,22194,hospetal,akkarampalli,31-Aug-19,Medical ,Bedded Hospital,13.64439684,79.4364839,517500,"Leela Mahal - Karakambadi Road, Tirupati, Tirupati (Urban), Tirupati District, Andhra Pradesh, 517500, India"
127,Andhra Pradesh,East Godavari,Pithapuram,Agraharam Rural,15671,cmc hospital,side of r& b road,30-Aug-19,Medical ,Bedded Hospital,17.125581,82.2546871,533450,"Pithapuram, Kakinada District, Andhra Pradesh, 533450, India"
128,Andhra Pradesh,Nellore,Atmakur,Atmakur,52136,Districthospital,at mainroad,26-Sep-19,Medical ,Community Health Centre,14.6336913,79.62124818,524322,"Byarareddipalle, Atmakur, Sri Potti Sriramulu Nellore District, Andhra Pradesh, 524322, India"
129,Andhra Pradesh,Kurnool,Allagadda,Allagadda,26246,community health center,Allagadda,02-Oct-19,Medical ,Community Health Centre,15.13327294,78.51434771,518543,"Allagadda - Ahobilam Road, Padakandla, Allagadda, Nandyal District, Andhra Pradesh, 518543, India"
130,Andhra Pradesh,Anantapur,Amarapuram,Amarapuram,28561,Primary health center ,Amarapuram ,06-Sep-19,Medical ,Bedded Hospital,14.12735101,76.97838028,515281,"PHC,Amarapuram, Near Bus Stand, Amarapuram, Anantapur District, Andhra Pradesh, 515281, India"
131,Andhra Pradesh,West Godavari,Bhimadole,Bhimadolu,150755,Community Health Centre ,Near MRO Office ,21-Aug-19,Medical ,Community Health Centre,16.81739167,81.26339333,534425,"Bhimadole, Eluru District, Andhra Pradesh, 534425, India"
132,Andhra Pradesh,Guntur,Amaravathi,Amaravathi,28586,bedded hospital ,amaravathi ,29-Aug-19,Medical ,Bedded Hospital,16.58033835,80.35768742,522020,"Amaravati, Amaravathi mandal, Palnadu District, Andhra Pradesh, 522020, India"
133,Andhra Pradesh,Chittoor,K V P Puram,Arai,43165,community Health centre,Arai,16-Aug-19,Medical ,Community Health Centre,13.47049999,79.7288617,517587,"Kalahasti - Middekandriga Road, Malapalli, Kumara Venkata Bhupalapuram, Tirupati District, Andhra Pradesh, 517587, India"
134,Andhra Pradesh,Guntur,Rentachintala,Paluvoi,813159,pH sub center,main road,25-Aug-19,Medical ,Community Health Centre,16.54363667,79.49834,522421,"Paluvayi, Rentachintala, Palnadu District, Andhra Pradesh, 522421, India"
135,Andhra Pradesh,Krishna,Pamarru,Pamarru,813378,sruthi hospital,pamarru,04-Sep-19,Medical ,Bedded Hospital,16.33051,80.96936167,521157,"NH165, Pamarru, Krishna District, Andhra Pradesh, 521157, India"
136,Andhra Pradesh,East Godavari,Sankhavaram,Annavaram,40907,community Health center,Annavaram,10-Sep-19,Medical ,Community Health Centre,17.28042667,82.403265,533406,"APSRTC BUS STAND , ANNAVARAM, APSRTC Bus Stand Road, Annavaram, Sankhavaram, Kakinada District, Andhra Pradesh, 533406, India"
137,Andhra Pradesh,Visakhapatnam,Munchingiputtu,Panasaput,814397,sub centre running in Gram Panchayat building,panasaput,14-Sep-19,Medical ,Community Health Centre,18.41025839,82.51615204,531040,"Paderu - Pedabayalu - Munchangiputtu Road, Darenipuutu, Munchangiputtu, Munchingi Puttu, Andhra Pradesh, 531040, India"
138,Andhra Pradesh,Y S R Kadapa,Galiveedu,Pakkireddigaripalli,807831,bedded hospital,pakkireddigaripallu,05-Sep-19,Medical ,Bedded Hospital,14.02681667,78.500865,516267,"Government hospital, Galiveedu, Pakkireddigari Palli, Galiveedu, Annamayya District, Andhra Pradesh, 516267, India"
139,Andhra Pradesh,Chittoor,Thavanampalle,Aragonda,43122,Appollo Hospital,Aragonda,13-Aug-19,Medical ,Bedded Hospital,13.28293737,78.95576196,517129,"Pullellavarivuru, Aruganda, Thavanampalle, Chittoor District, Andhra Pradesh, 517129, India"
140,Andhra Pradesh,Nellore,Kondapuram,Pathauppulur,837176,collection center milk house,Pathauppulur,21-Aug-19,Medical ,Community Health Centre,14.94028245,79.63798402,524001,"Tellapadu, Kaligiri, Sri Potti Sriramulu Nellore District, Andhra Pradesh, India"
141,Andhra Pradesh,Prakasam,Komarolu,Badinenipalli,63572,badinenipalle,badinenipalle,10-Sep-19,Medical ,Community Health Centre,15.2748726,78.96679548,523373,"Krishnampalle, Komarolu, Prakasam District, Andhra Pradesh, 523373, India"
142,Andhra Pradesh,Krishna,Challapalli,Challapalli,195890,community helth center,challapalli,28-Sep-19,Medical ,Community Health Centre,16.12080843,80.92758153,521126,"Challapalli, Challapalle, Krishna District, Andhra Pradesh, 521126, India"
143,Andhra Pradesh,Kurnool,Pattikonda,Pattikonda,840920,Community Health Center,Gooty Road,07-Aug-19,Medical ,Community Health Centre,15.38990333,77.51122667,518380,"government hospital, Peapully - Pattikonda Road, Pattikonda, Kurnool District, Andhra Pradesh, 518380, India"
144,Andhra Pradesh,Chittoor,Puthalapattu,P KOTHAKOTA,797964,Community Health Centre,PKothakota,17-Aug-19,Medical ,Community Health Centre,13.41005092,79.10955806,517112,"National Highway 140, Kottakota, Puthalapattu, Chittoor District, Andhra Pradesh, 517112, India"
145,Andhra Pradesh,Prakasam,Parchur,Parchur,824713,government hospital,parchur,13-Sep-19,Medical ,Bedded Hospital,15.96559181,80.2701463,523169,"Government Hospital, Parchuru, Parchuru - Inkollu Road, Parchur, Upputuru RV, Parchur, Prakasam District, Andhra Pradesh, 523169, India"
146,Andhra Pradesh,Anantapur,Bukkarayasamudram,B.K. Samudram,56572,Bedded Hospital,Bukkarayasamudram,02-Aug-19,Medical ,Bedded Hospital,14.68951043,77.63184249,515701,"Sri Vijayalakshmi Hospital, NH544D, Bukkaraya Samudram, Anantapur District, Andhra Pradesh, 515701, India"
147,Andhra Pradesh,Vizianagaram,Badangi,Badangi,61227,community health centre,Badangi,07-Sep-19,Medical ,Community Health Centre,18.49395021,83.3605882,532124,"Chilakapalem - Ramabhadrapuram - Rayagada Road, Uttaravalli, Merakamudidam, Vizianagaram District, Andhra Pradesh, 532124, India"
148,Andhra Pradesh,Visakhapatnam,Payakaraopeta,Payakaraopeta,842341,Govt health center,Payakaraopeta road,02-Sep-19,Medical ,Bedded Hospital,17.36599899,82.56453577,533401,"Payakaraopeta, Anakapalli District, Andhra Pradesh, 533401, India"
149,Andhra Pradesh,Y S R Kadapa,V N Palli,Payasampalli,842475,Bedded Hospital,Payasam Palli village,19-Aug-19,Medical ,Bedded Hospital,14.53576261,78.53210478,516319,"Payasampalle, Veerapunayunipalle, YSR District, Andhra Pradesh, 516319, India"
150,Andhra Pradesh,Guntur,Dachepalle,Pedagarlapadu,842941,pH centre,c village,04-Sep-19,Medical ,Community Health Centre,16.52706235,79.75163476,522437,"Pedda Garlapadu, Dachepalle, Palnadu District, Andhra Pradesh, 522437, India"
151,Andhra Pradesh,Kurnool,Orvakal,Orvakal,796411,Community health center,Kurnool NandyalRoad,21-Aug-19,Medical ,Community Health Centre,15.68579216,78.17041376,518010,"Primary Health Centre, NH40, Orvakal, Kurnool District, Andhra Pradesh, 518010, India"
152,Andhra Pradesh,Chittoor,Pakala,Pakala,806876,Bedded hospital,Pakala,28-Aug-19,Medical ,Bedded Hospital,13.45442857,79.12684686,517112,"PHC,Pakala, Opp.MRO Office, Pakala, Chittoor District, Andhra Pradesh, 517112, India"
153,Andhra Pradesh,Visakhapatnam,Payakaraopeta,Mangavaram,671819,Primary health center,Mangavaram road,02-Sep-19,Medical ,Bedded Hospital,17.3478942,82.58639009,531126,"Government Hospital, , Mangavaram, Payakaraopeta, Visakhapatnam District, Andhra Pradesh, 531126, India"
154,Andhra Pradesh,Kurnool,Mantralayam,Mantralayam,678192,S R S Mutt Mantralayam,Raichur road,26-Aug-19,Medical ,Bedded Hospital,15.939944,77.42129164,518345,"Sri Sujayeendra Arogyashala, Jadcherla - Hagari Road, Mantralayam, Kurnool District, Andhra Pradesh, 518345, India"
155,Andhra Pradesh,Anantapur,Pamidi,Pamidi,813477,medical,community health center,04-Oct-19,Medical ,Community Health Centre,14.94550333,77.59109,515775,"Pamidi, Anantapur District, Andhra Pradesh, 515775, India"
156,Andhra Pradesh,Prakasam,Pamur,Pamuru,813660,Community health center,"community health center , Pamuru",28-Aug-19,Medical ,Community Health Centre,15.09230674,79.4196805,523108,"Community Health Centre, NH565, Pamuru, Pamur, Prakasam District, Andhra Pradesh, 523108, India"
157,Andhra Pradesh,Guntur,Gurazala,Palligunta,811959,health center,palligunta road,05-Sep-19,Medical ,Community Health Centre,16.54294595,79.65175493,522415,"Palliguntla, Gurazala, Palnadu District, Andhra Pradesh, 522415, India"
158,Andhra Pradesh,Prakasam,Santhanuthlapadu,S N padu,929720,Beaded hospital,santhanuthalapadu,07-Aug-19,Medical ,Bedded Hospital,15.54015618,79.94357143,523225,"Santanutalalpadu, Santhanuthala Padu, Prakasam District, Andhra Pradesh, 523225, India"
159,Andhra Pradesh,Guntur,Pedakakani,Pedakakani,843002,Bedded hospital,Pedakakani,27-Aug-19,Medical ,Bedded Hospital,16.33134008,80.48644869,522509,"Pedakakani, Guntur District, Andhra Pradesh, 522509, India"
160,Andhra Pradesh,Srikakulam,Jalumuru,Syrigam,938212,Bedded Hospital,Sairigam,10-Aug-19,Medical ,Bedded Hospital,18.49860833,83.97743167,532400,"Sairigam, Jalumuru, Srikakulam District, Andhra Pradesh, 532400, India"
161,Andhra Pradesh,Vizianagaram,Pachipenta,Pachipenta,800551,Community health Centre,Pachipenta,15-Sep-19,Medical ,Community Health Centre,18.48199024,83.11449166,535592,"Government Hospital,Pachipenta, Near Rcm Charch, Pachipenta, Parvathipuram Manyam District, Andhra Pradesh, 535592, India"
162,Andhra Pradesh,Srikakulam,Palakonda,Palakonda,808875,Vaidyavidhanaparishedareahospitalpalakonda,Neelammacolonypalakonda,04-Oct-19,Medical ,Community Health Centre,18.60098386,83.76347688,532440,"Palakonda, Parvathipuram Manyam District, Andhra Pradesh, 532440, India"
163,Andhra Pradesh,East Godavari,Pedapudi,Pedapudi,843240,community health centre,near gpoffice,11-Sep-19,Medical ,Community Health Centre,16.94967387,82.12458336,533006,"CHC, Pedapudi, Pyna - Kakinada Road, Pedapudi, East Godavari District, Andhra Pradesh, 533006, India"
164,Andhra Pradesh,Guntur,Pedakurapadu,Patibandla,838096,bedded hospital,patibandla,11-Aug-19,Medical ,Bedded Hospital,16.46238144,80.29953026,522402,"Mussapuram, Pedakurapadu, Palnadu District, Andhra Pradesh, 522402, India"
165,Andhra Pradesh,Srikakulam,Seethampeta,Seethampeta,968245,CHC seethampeta ,main road,04-Sep-19,Medical ,Community Health Centre,18.6951128,83.81718158,532443,"Seethampeta Bus Stop, Palakonda - Hadobhangi Road, Panukuvalasa, Seethampeta, Parvathipuram Manyam District, Andhra Pradesh, 532443, India"
166,Andhra Pradesh,Visakhapatnam,S Rayavaram,Pedagummuluru,842986,Sri venkateswara poli clinic and ESI Panel clinic,Pedagummuluru,06-Sep-19,Medical ,Community Health Centre,17.43176645,82.74319875,531081,"Narsipatnam - Revupolavaram Road, Lakshmipatirajupeta, S.Rayavaram, Anakapalli District, Andhra Pradesh, 531081, India"
167,Andhra Pradesh,West Godavari,Penumantra,Marteru,682301,community health centre,mareteru,09-Sep-19,Medical ,Community Health Centre,16.62543494,81.73727112,534122,"Narsapuram - Aswaraopeta Road, Velagaleru, Penumantra, West Godavari District, Andhra Pradesh, 534122, India"
168,Andhra Pradesh,Nellore,Indukurpet,Indukurpet Bit II,433828,Community  Health  centre ,INDUKURPETA  BIT- II,13-Aug-19,Medical ,Community Health Centre,14.47123416,80.10094746,524314,"Mottalu, Budamvarikhandrika, Indukurpet, Sri Potti Sriramulu Nellore District, Andhra Pradesh, 524314, India"
169,Andhra Pradesh,West Godavari,Penumantra,Penumantra,845769,beded hospital,penumantra,20-Aug-19,Medical ,Bedded Hospital,16.65308401,81.64163245,534124,"Narsapuram - Aswaraopeta Road, Pamanivallapalem, Penumantra, West Godavari District, Andhra Pradesh, 534124, India"
170,Andhra Pradesh,West Godavari,Penumantra,Penumantra,845769,community health centre,penumantra,20-Aug-19,Medical ,Community Health Centre,16.63783438,81.65727449,534124,"Rama Krishna Reddy Memorial Hospital, Narsapuram - Aswaraopeta Road, Penumantra, West Godavari District, Andhra Pradesh, 534124, India"
171,Andhra Pradesh,Anantapur,Mudigubba,Mudigubba,720519,Hospital,The doctor  PHC Mudigubba,21-Aug-19,Medical ,Bedded Hospital,14.35185592,77.9969773,515511,"Mudigubba, Sri Sathya Sai District, Andhra Pradesh, 515511, India"
172,Andhra Pradesh,Prakasam,Ongole,Mukthinuthalapadu,722891,Kims Hospital,Mukthinuthalapadu,10-Sep-19,Medical ,Bedded Hospital,15.53314837,80.05414284,523002,"NH16 Service Road, Ongole, Prakasam District, Andhra Pradesh, 523002, India"
173,Andhra Pradesh,Prakasam,Lingasamudram,Pedapavani,843220,Bedded Hospital,Pedapavani,24-Aug-19,Medical ,Bedded Hospital,15.0051293,79.81466371,523115,"Peddapavani, Lingasamudram, Sri Potti Sriramulu Nellore District, Andhra Pradesh, 523115, India"
174,Andhra Pradesh,Visakhapatnam,Munchingiputtu,Munchingiputtu,724581,hospital,hospital,22-Aug-19,Medical ,Community Health Centre,18.36567168,82.51005372,531040,"Primary Health Center, Munchangiputtu, Paderu - Pedabayalu - Munchangiputtu Road, Darenipuutu, Munchangiputtu, Munchingi Puttu, Andhra Pradesh, 531040, India"
175,Andhra Pradesh,Guntur,Ipuru,Muppalla,726946,Hospital ,muppalla,07-Sep-19,Medical ,Bedded Hospital,16.1825274,79.74160306,521183,"Bollapalle, Palnadu District, Andhra Pradesh, India"
176,Andhra Pradesh,Visakhapatnam,Paderu,Pathapaderu,836398,bedded hospital,paderu,04-Sep-19,Medical ,Bedded Hospital,18.0804793,82.67344866,531024,"Community Health centre, Paderu, Near Temple, Paderu, Visakhapatnam District, Andhra Pradesh, 531024, India"
177,Andhra Pradesh,Nellore,Vinjamur,Pathur,837851,Governmenthospital,oldvinjamur,09-Aug-19,Medical ,Bedded Hospital,14.83752279,79.58850724,524222,"NH167BG, Nandigunta, Vinjamur, Sri Potti Sriramulu Nellore District, Andhra Pradesh, 524222, India"
178,Andhra Pradesh,Chittoor,Kuppam,Kuppam,602759,Area Hospital ,KUPPAM ,03-Sep-19,Medical ,Bedded Hospital,12.76470294,78.3510178,517425,"Pathapeta, Malakathanmuru, Kuppam, Chittoor District, Andhra Pradesh, 517425, India"
179,Andhra Pradesh,Srikakulam,Pathapatnam,Pathapatnam,836446,commary health center,pathapatanam,30-Aug-19,Medical ,Community Health Centre,18.74520988,84.08541597,532213,"Government Hospital,Pathapatnam, NH326A, Pathapatnam, Srikakulam District, Andhra Pradesh, 532213, India"
180,Andhra Pradesh,East Godavari,Sakhinetipalle,Moripodu,716076,Divine Emergency Hospital ,Moripodu,30-Aug-19,Medical ,Bedded Hospital,16.3989083,81.80928765,533253,"Podu, Sakhinetipalle, Dr. B. R. Ambedkar Konaseema District, Andhra Pradesh, 533253, India"
181,Andhra Pradesh,Guntur,Pittalavanipalem,Pittuvaripalem,858010,Care medical college and hospital,Pittalavaripalem,07-Aug-19,Medical ,Bedded Hospital,15.9815122,80.62219767,522329,"Repalle - Pittalavanipalem Road, Godanavaripalem, Pittalavanipalem, Bapatla District, Andhra Pradesh, 522329, India"
182,Andhra Pradesh,East Godavari,Kapileswarapuram,K P Puram,474796,CHC,KP Puram,06-Sep-19,Medical ,Community Health Centre,16.74331204,81.92214272,533309,"St. Anns Hospital, Mandapeta - Kapileswarapuram Road, Kapileswarapuram, East Godavari District, Andhra Pradesh, 533309, India"
183,Andhra Pradesh,Chittoor,Gudipala,PEYANA PALLE RLY STA,848502,bedded hospital,chittoor district ap,04-Sep-19,Medical ,Bedded Hospital,13.13048396,79.13718406,517132,"Christian Mission Hospital, , Golluru, Peyanapalle, Chittoor, Chittoor District, Andhra Pradesh, 517132, India"
184,Andhra Pradesh,East Godavari,Ambajipeta,Machavaram,635398,Hospital,Machavaram,31-Aug-19,Medical ,Bedded Hospital,16.59671833,81.93961333,533214,"Balla Pattilingam Trust Hospital, Ambajipeta - P. Gannavaram Road, Machavaram, Ambajipeta, East Godavari District, Andhra Pradesh, 533214, India"
185,Andhra Pradesh,Chittoor,Peddamandyam,Peddmandyam,844023,Medical center,Peddamandem ,31-Aug-19,Medical ,Bedded Hospital,13.92779304,78.54009224,517301,"Kalicherla, Peddamandyam, Annamayya District, Andhra Pradesh, 517301, India"
186,Andhra Pradesh,Nellore,Butchireddipalem,Kalayakagollu,487930,Nellore Lakshmi Devamma Free Hospital,Kalayakagollu,21-Aug-19,Medical ,Bedded Hospital,14.50814131,79.9042251,524305,"Chellayapalem, Buchireddipalem, Sri Potti Sriramulu Nellore District, Andhra Pradesh, 524305, India"
187,Andhra Pradesh,West Godavari,Iragavaram,Pekeru,844986,pacs hospital ,pekeru,21-Aug-19,Medical ,Bedded Hospital,16.68730995,81.7454585,534217,"Nittalavaritotam, Pekeru, Iragavaram, West Godavari District, Andhra Pradesh, 534217, India"
188,Andhra Pradesh,Guntur,Pedakurapadu,Pedakurapadu,843060,bedded hospital,pedakurapadu ,11-Aug-19,Medical ,Bedded Hospital,16.46946002,80.26053546,522402,"Peddakurapadu, Pedakurapadu, Palnadu District, Andhra Pradesh, 522402, India"
189,Andhra Pradesh,Y S R Kadapa,Vemula,Peddajutur,843594,peddajutur,peddajutur,01-Oct-19,Medical ,Community Health Centre,14.4032228,78.2906803,516349,"Gollalaguduru, Vemula, YSR District, Andhra Pradesh, 516349, India"
190,Andhra Pradesh,Krishna,Jaggayyapeta,Pochampalli,858458,community health center,Pochampalli,22-Aug-19,Medical ,Community Health Centre,16.83481533,80.18497958,522185,"Pochampalle, Jaggayyapeta, NTR District, Andhra Pradesh, 522185, India"
191,Andhra Pradesh,Nellore,Kaligiri,Kaligiri,489579,beded hospital,kaligiri,25-Aug-19,Medical ,Bedded Hospital,14.82931598,79.69419993,524224,"Primary Health Centre, Kaligiri, NH167BG, Kaligiri, Sri Potti Sriramulu Nellore District, Andhra Pradesh, 524224, India"
192,Andhra Pradesh,Prakasam,Podili,Podili,858815,Community health center,Main road,13-Aug-19,Medical ,Community Health Centre,15.60680862,79.61362916,523240,"Podili, Prakasam District, Andhra Pradesh, 523240, India"
193,Andhra Pradesh,Prakasam,Ulavapadu,Ulavapadu,1071276,bedede hospital ,Ulavapadu ,08-Aug-19,Medical ,Bedded Hospital,15.16383569,80.00509347,523292,"Ulvapadu, Ulavapadu, Sri Potti Sriramulu Nellore District, Andhra Pradesh, 523292, India"
194,Andhra Pradesh,West Godavari,Pentapadu,Pentapadu,845698,Prashanthi hospital ,Sangammeda,11-Sep-19,Medical ,Bedded Hospital,16.78031266,81.52336657,534166,"Pentapadu Agraharam, Pentapadu, West Godavari District, Andhra Pradesh, 534166, India"
195,Andhra Pradesh,Visakhapatnam,Gangaraju Madugula,K.G.MADUGULA,475174,hospital ,G madugula ,06-Sep-19,Medical ,Bedded Hospital,18.09297955,82.66882086,531024,"NH516E, Karakaputtu, Gonduru, Paderu, Andhra Pradesh, 531024, India"
196,Andhra Pradesh,Anantapur,Penu Konda,Penukonda,845751,Bedded hospital,The Doctor Govt hospetal peukonda,05-Aug-19,Medical ,Bedded Hospital,14.08863529,77.59614015,515110,"Penukonda, Sri Sathya Sai District, Andhra Pradesh, 515110, India"
197,Andhra Pradesh,Anantapur,Madakasira,Kallumarri,491992,community health care,Kallumarri,07-Sep-19,Medical ,Community Health Centre,13.87245369,77.38249328,515303,"PHC,Kallumarri, Kallumarri Post Office, Madakasira, Anantapur District, Andhra Pradesh, 515303, India"
198,Andhra Pradesh,Kurnool,Dornipadu,Umapathi Nagar,1071911,G P Chowdary Hospetal,Umapathinagar,05-Sep-19,Medical ,Bedded Hospital,15.31132537,78.40526173,518595,"Yalluru - Gundupala Road, Krishnapuram, Gospadu, Nandyal District, Andhra Pradesh, 518595, India"
199,Andhra Pradesh,Y S R Kadapa,Kamalapuram,Kamalapuram,494993,community health centre ,kamalapuram village kamalapuram mandal ysr district ,05-Sep-19,Medical ,Community Health Centre,14.596805,78.66971333,516289,"Government Hospital, Khajipeta - Kamalapuram Road, Kamalapuram, YSR District, Andhra Pradesh, 516289, India"
200,Andhra Pradesh,Chittoor,Tirupati Urban,Upparapalem,1076137,beded hospetal,upparapalem,24-Aug-19,Medical ,Bedded Hospital,13.62895469,79.46345226,517500,"Tirupati, Tirupati (Urban), Tirupati District, Andhra Pradesh, 517500, India"
201,Andhra Pradesh,Prakasam,Naguluppalapadu,Uppugundur,1076959,tulasi venkateswara hospital,uppugundur,08-Aug-19,Medical ,Bedded Hospital,15.67083617,80.16767048,523186,"Subbarao Hospital, Bus Stand Road, Uppugunduru, Naguluppala Padu, Prakasam District, Andhra Pradesh, 523186, India"
202,Andhra Pradesh,Kurnool,Gadivemula,Pesaravayi,847974,veterinary  hospital,near Ramudu house,04-Sep-19,Medical ,Bedded Hospital,15.65220572,78.48746136,518513,"Bojanamu, Bandi Atmakur, Nandyal District, Andhra Pradesh, 518513, India"
203,Andhra Pradesh,Krishna,Musunuru,Musunuru,734195,bedded hospital,musunuru,27-Aug-19,Medical ,Bedded Hospital,16.82527426,80.93201593,521207,"Musunuru PHC, , Musunuru, Krishna District, Andhra Pradesh, 521207, India"
204,Andhra Pradesh,Srikakulam,Rajam,Pogiri,858929,Leprosy Hospital,Pogiri,04-Sep-19,Medical ,Community Health Centre,18.41769276,83.68851668,532127,"Chilakapalem - Ramabhadrapuram - Rayagada Road, Rajam, Vizianagaram District, Andhra Pradesh, 532127, India"
205,Andhra Pradesh,Guntur,Krosuru,Utukur,1081304,milk collection center ,utukur,27-Aug-19,Medical ,Community Health Centre,16.56740837,80.20131986,533247,"Utukuru, Krosuru, Palnadu District, Andhra Pradesh, India"
206,Andhra Pradesh,Guntur,Cherukupalle,Nadimpalli,740426,Eye hospital,Nadimpalli,16-Aug-19,Medical ,Community Health Centre,16.07098613,80.71267484,522259,"Nadimpalli, Cherukupalle H/O Arumbaka, Bapatla District, Andhra Pradesh, 522259, India"
207,Andhra Pradesh,Nellore,Podlakur,Podalakur,858613,Community health centre ,Podalakur  village ,11-Sep-19,Medical ,Community Health Centre,14.38018469,79.73050782,524345,"SH363, Degapudrajupalemi, Inukurti, Podalakur, Sri Potti Sriramulu Nellore District, Andhra Pradesh, 524345, India"
208,Andhra Pradesh,West Godavari,Buttayagudem,K R Puram,474872,Beded hospital ,KR puram colany ,03-Sep-19,Medical ,Bedded Hospital,17.18569252,81.42116966,535281,"Kotha Ramachandrapuram, Koyyalagudem, Eluru District, Andhra Pradesh, India"
209,Andhra Pradesh,Chittoor,Vijaya Puram,K V Puram,475004,community center,at village ,27-Aug-19,Medical ,Community Health Centre,13.29402333,79.65627,631212,"Kotturivenkatapuram, Vijayapuram, Chittoor District, Andhra Pradesh, 631212, India"
210,Andhra Pradesh,Prakasam,Ongole,Karavadi,512166,bedded hospital,karavadi,13-Aug-19,Medical ,Bedded Hospital,15.54512718,80.11316263,523182,", Ongole, Prakasam District, Andhra Pradesh, 523182, India"
211,Andhra Pradesh,Krishna,Gudlavalleru,Dokiparru,306754,Ayurveda hospital,Beside panchayati road,04-Sep-19,Medical ,Bedded Hospital,16.2981677,81.05193661,521332,"Dokiparru, Gudlavalleru, Krishna District, Andhra Pradesh, 521332, India"
212,Andhra Pradesh,Guntur,Savalyapuram,Karumanchi,517703,sub center,Karumanchi,06-Sep-19,Medical ,Bedded Hospital,16.05767096,79.89371648,523303,"Karumanchi, Savalyapuram, Palnadu District, Andhra Pradesh, 523303, India"
213,Andhra Pradesh,Guntur,Savalyapuram,Karumanchi,517703,hospital ,karmunchi,06-Sep-19,Medical ,Bedded Hospital,16.05322568,79.8885158,523303,"Vayyakallu, Savalyapuram, Palnadu District, Andhra Pradesh, 523303, India"
214,Andhra Pradesh,Anantapur,Kalyandurg,KALYANADURG PT,493838,beddedhospital,kalyanadurgpt,13-Aug-19,Medical ,Bedded Hospital,14.55659667,77.110135,515761,"Anantapur - Kalyandurg - Rayadurg Road, Kalyandurg, Anantapur District, Andhra Pradesh, 515761, India"
215,Andhra Pradesh,Y S R Kadapa,S A Kasinayana,Narasapuram,760265,Bedded Hospital,Narasspuram,22-Aug-19,Medical ,Bedded Hospital,15.05085082,78.92974499,516217,"Porumamilla - Konarajupalli - Narsapuram - Kasinayunipalli Road, Narsapuram, Sri Avadhutha Kasinayana, YSR District, Andhra Pradesh, 516217, India"
216,Andhra Pradesh,West Godavari,Chintalapudi,Fathimapuram,329931,Fathima Hospital ,fahimapuram,04-Sep-19,Medical ,Bedded Hospital,17.02094193,80.99480141,534462,"Eluru - Medisettivaripalem Road, Mathamgudem, Lingapalem, Eluru District, Andhra Pradesh, 534462, India"
217,Andhra Pradesh,Krishna,Nandivada,Rudrapaka,927225,bedded hospital,near govt junior college,04-Sep-19,Medical ,Bedded Hospital,16.51694826,81.0962787,521326,"Rudrapaka PHC, Rudrapaka, Nandivada, Krishna District, Andhra Pradesh, 521326, India"
218,Andhra Pradesh,East Godavari,Amalapuram,Karakkayapeta,510056,Kims bedded hospital,karakkyapeta,06-Sep-19,Medical ,Bedded Hospital,16.59080628,82.0229671,533201,"A Vemavarappadu, Amalapuram, Dr. B. R. Ambedkar Konaseema District, Andhra Pradesh, 533201, India"
219,Andhra Pradesh,Chittoor,Srikalahasti,Empedu,324787,beded hospital ,Empedu,04-Sep-19,Medical ,Bedded Hospital,13.86195136,79.58636893,517620,"NH565, Vengalampalli, Vampalli, Srikalahasti, Tirupati District, Andhra Pradesh, 517620, India"
220,Andhra Pradesh,Guntur,Vinukonda,Enugupalem,325206,bedded hospital,engupalem,05-Sep-19,Medical ,Bedded Hospital,16.02517661,79.82032334,522615,"Vinukonda - Kopperapadu Road, Ummadivaram, Vinukonda, Palnadu District, Andhra Pradesh, 522615, India"
221,Andhra Pradesh,Visakhapatnam,Sabbavaram,Sabbavaram,930528,Mother and child hospital,Sabbavaram,07-Sep-19,Medical ,Bedded Hospital,17.790335,83.12187333,531035,"Sabbavaram, Anakapalli District, Andhra Pradesh, 531035, India"
222,Andhra Pradesh,Srikakulam,Saravakota,Saravakota,956639,Bedded Hospital,Saravakota,06-Sep-19,Medical ,Bedded Hospital,18.58951131,84.05036333,532432,"NH326A, Sivarampuram, Vaddinavalasa, Saravakota, Srikakulam District, Andhra Pradesh, 532432, India"
223,Andhra Pradesh,Nellore,Kavali,Sarvayapalem,961285,hospital,village inside,07-Sep-19,Medical ,Bedded Hospital,14.93241333,80.02466833,524203,"Primary Health Centre, Sarvayapalem, NH16, Sarvayapalem, Kavali, Sri Potti Sriramulu Nellore District, Andhra Pradesh, 524203, India"
224,Andhra Pradesh,Guntur,Nizampatnam,Nizampatnam,787237,community health centre,nizampatnam,13-Aug-19,Medical ,Community Health Centre,15.91144498,80.66929212,522314,"Repalle - Nizampatnam Road, Marakkavaripalem, Nizampatam, Nizampatnam, Bapatla District, Andhra Pradesh, 522314, India"
225,Andhra Pradesh,Nellore,Bogole,Siddavaram,988586,bedded hosptel,village center,08-Sep-19,Medical ,Bedded Hospital,14.77613965,80.06220867,524315,"Weedhousepeta, Allur, Sri Potti Sriramulu Nellore District, Andhra Pradesh, 524315, India"
226,Andhra Pradesh,Chittoor,Satyavedu,Sathyavedu,963268,Community health center,sathyavedu,21-Aug-19,Medical ,Community Health Centre,13.43757394,79.95563004,517588,"CHC,Sathyavedu, Near Police Station, Satyavedu, Chittoor District, Andhra Pradesh, 517588, India"
227,Andhra Pradesh,Chittoor,Gudupalle,Nalagampalle,753244,PES Medical College Hospital,Nalagampalle,07-Sep-19,Medical ,Bedded Hospital,12.79150167,78.363775,517425,"Madanapalle - Krisnakiri, Chinnasettipalli, Beggilipalli, Gudipalli, Chittoor District, Andhra Pradesh, 517425, India"
228,Andhra Pradesh,Anantapur,Rolla,Rolla,924804,Community health care ,Rolla,22-Aug-19,Medical ,Community Health Centre,13.84138017,77.10511536,515321,"Government Hospital,Rolla, Near Police Station, Rolla, Anantapur District, Andhra Pradesh, 515321, India"
229,Andhra Pradesh,West Godavari,Nallajerla,Nallajerla,753934,Vadlamudi  Multi Speciality Hospital,Nallajerla,04-Sep-19,Medical ,Bedded Hospital,16.94707108,81.40882066,534112,"Narsapuram - Aswaraopeta Road, Nallajerla, East Godavari District, Andhra Pradesh, 534112, India"
230,Andhra Pradesh,Vizianagaram,Srungavarapukota,S Kota,929641,CHC S Kota,S Kota,13-Sep-19,Medical ,Community Health Centre,18.1094956,83.13671001,535145,"Community Health centre,S.Kota, Beside Mdo Office, Srungavarapukota, Vizianagaram District, Andhra Pradesh, 535145, India"
231,Andhra Pradesh,East Godavari,Sakhinetipalle,Sakhinetipalli,939551,Bedded Hospital,Sakhinetipalli,22-Aug-19,Medical ,Bedded Hospital,16.40438167,81.75761333,533251,"Government Hospital, Sakhinetipalli, Medapadu - Narasapuram Road, Polavaram, Yelamanchili, East Godavari District, Andhra Pradesh, 533251, India"
232,Andhra Pradesh,Krishna,Ibrahimpatnam,Jupudi,473713,NimraHospital,jupudi,29-Aug-19,Medical ,Bedded Hospital,16.60471988,80.50355238,521456,"Jupudi, Ibrahimpatnam, NTR District, Andhra Pradesh, 521456, India"
233,Andhra Pradesh,East Godavari,Ambajipeta,Irusumanda,434993,Hospital,Irusumanda,21-Aug-19,Medical ,Bedded Hospital,16.63716,81.95243833,533239,"Deevena Hospital, Amalapuram - Bobbarlanka Road, Irusumanda, Ambajipeta, East Godavari District, Andhra Pradesh, 533239, India"
234,Andhra Pradesh,Krishna,Penuganchiprolu,Navabpeta,768349,Community health center,Navabpeta,23-Aug-19,Medical ,Community Health Centre,16.85807185,80.19645332,535148,"Gouravaram, Jaggayyapeta, NTR District, Andhra Pradesh, India"
235,Andhra Pradesh,Srikakulam,Seethampeta,K Veeraghattam,475017,Health Centre,K Veeraghattam,05-Sep-19,Medical ,Community Health Centre,18.75873065,83.68047232,532001,"SH95, Mekava, Donubayi, Seethampeta, Parvathipuram Manyam District, Andhra Pradesh, India"
236,Andhra Pradesh,Kurnool,Mantralayam,Kachapuram,476355,Bedded Hospital Tungabhadra,Near High School,17-Aug-19,Medical ,Bedded Hospital,15.9477376,77.30593129,523002,"Katsapuram, Mantralayam, Kurnool District, Andhra Pradesh, India"
237,Andhra Pradesh,Visakhapatnam,Pendurthi,Saripalli,958616,Sub Centre,Saripalle,30-Aug-19,Medical ,Community Health Centre,17.84210167,83.19877333,531173,"Taraka Rama Colony, Saripalli, Pendurthi, Visakhapatnam District, Andhra Pradesh, 531173, India"
238,Andhra Pradesh,Srikakulam,Narasannapeta,Narasannapeta,760230,Bedde Hospital,Narasannapeta,05-Aug-19,Medical ,Bedded Hospital,18.41715,84.04508,532421,"Narasannapeta, Srikakulam District, Andhra Pradesh, 532421, India"
239,Andhra Pradesh,Anantapur,Kudair,Marutla 1,682793,health wellness centre ,marital 1,09-Aug-19,Medical ,Community Health Centre,14.82302038,77.38481806,516355,"Marutlacheruvu, Kudair, Anantapur District, Andhra Pradesh, India"
240,Andhra Pradesh,East Godavari,Mamidikuduru,Jaggannapeta,441168,Hospital,Jaggannapeta,31-Aug-19,Medical ,Bedded Hospital,16.49446667,81.88012167,533249,"Jagganapeta, Mamidikuduru, Dr. B. R. Ambedkar Konaseema District, Andhra Pradesh, 533249, India"
241,Andhra Pradesh,West Godavari,Pedapadu,satyanarayanapuram,964267,MURALI KRISHNA BEDDED HOSPITAL,"Satyanarayana Puram, Pedapadu",06-Sep-19,Medical ,Bedded Hospital,16.65786263,81.05643426,534437,"Eluru - Perikeedu Road, Satyanarayanapuram, Pedapadu, Eluru District, Andhra Pradesh, 534437, India"
242,Andhra Pradesh,Guntur,Savalyapuram,Savalyapuram,964918,bedded hospital,savalyapuram,06-Sep-19,Medical ,Bedded Hospital,16.10613269,79.81790823,522646,"PHC, Savalyapram, Near Zp High School, Savalyapuram, Palnadu District, Andhra Pradesh, 522646, India"
243,Andhra Pradesh,Prakasam,Kanigiri,Kaknigiri Urbun,484828,Community health Center ,Kanigiri urban ,21-Aug-19,Medical ,Community Health Centre,15.40321107,79.50436798,523230,"Government Hospital, Kanigiri, NH565, Kotturu, Kanigiri, Prakasam District, Andhra Pradesh, 523230, India"
244,Andhra Pradesh,Anantapur,Kudair,Jallipalli,446716,health sub centre ,jallipalli,08-Aug-19,Medical ,Community Health Centre,14.80607581,77.34836876,515711,"Jallipalli, Kudair, Anantapur District, Andhra Pradesh, India"
245,Andhra Pradesh,Krishna,Avanigadda,Seetailanka,968125,STANNS hospital ,Avanigadda ,07-Sep-19,Medical ,Bedded Hospital,16.03000417,80.91311533,521121,"ST.ANN'S SCHOOL, Gudivada - Challapalli - T.Kothapalem Road, Avanigadda, Krishna District, Andhra Pradesh, 521121, India"
246,Andhra Pradesh,Chittoor,Kalikiri,Kalikiri,489791,community health centre,"govt community health centre, kalikiri",26-Aug-19,Medical ,Community Health Centre,13.64694543,78.80288382,517237,"Nadimpalle, Battireddivandlapalle, Kalikiri, Annamayya District, Andhra Pradesh, 517237, India"
247,Andhra Pradesh,Vizianagaram,Nellimarla,Nellimarla,777495,CHC At Nellimarla,Nellimarla,14-Sep-19,Medical ,Community Health Centre,18.16502238,83.44822716,535217,"Nellimarla Bus Stop, Vizianagaram - Palakonda Road, Nellimarla, Vizianagaram District, Andhra Pradesh, 535217, India"
248,Andhra Pradesh,Anantapur,Vidapanakal,Havaligi,418003,community health sub centre ,havaligi,22-Aug-19,Medical ,Community Health Centre,15.01380297,77.1143037,515870,"Havalige, Vidapanakal, Anantapur District, Andhra Pradesh, India"
249,Andhra Pradesh,Krishna,Vatsavai,Kambhampadu,496877,Community health center,Kambhampadu,24-Aug-19,Medical ,Community Health Centre,16.97907491,80.24436618,521402,"SH, Vatsavai, NTR District, Andhra Pradesh, 521402, India"
250,Andhra Pradesh,Chittoor,Mulakalacheruvu,Molakalacheruvu,712710,community health center,mulakalacheru,31-Aug-19,Medical ,Community Health Centre,13.80610345,78.26056951,517001,"Mulakalacheruvu, Annamayya District, Andhra Pradesh, India"
251,Andhra Pradesh,Vizianagaram,Kurupam,Kurupam,606499,CHC kurupam,Kurupam,13-Sep-19,Medical ,Community Health Centre,18.86697614,83.54916962,535524,"Government Hospital,Madalangi, Near Rama Mandhir, Kurupam, Vizianagaram District, Andhra Pradesh, 535524, India"
252,Andhra Pradesh,Guntur,Phirangipuram,Nudurupadu,791969,Community Health Centre,Nudurupadu,05-Sep-19,Medical ,Community Health Centre,16.28203676,80.21356126,522529,"Primary Health Centre, Nururupadu, Nuduruapadu, Phirangipuram, Guntur District, Andhra Pradesh, 522529, India"
253,Andhra Pradesh,East Godavari,Sankhavaram,Rowthulapudi,926570,Bedded hospital,rowthulaudi,09-Sep-19,Medical ,Bedded Hospital,17.38123857,82.36869845,533446,"CHC,Rowthulapudi, Tuni - Kathipudi Road, Routhulapudi, East Godavari, Kakinada District, Andhra Pradesh, 533446, India"
254,Andhra Pradesh,Chittoor,Srirangarajapuram,S.R.PURAM,930112,Bedded hospital ,SRPuram,20-Aug-19,Medical ,Bedded Hospital,13.30835958,79.35284564,517167,"Chittoor - Puttur Road, Nayudupalle, SR Puram, Srirangarajapuram, Chittoor District, Andhra Pradesh, 517167, India"
255,Andhra Pradesh,East Godavari,Kadiam,Kadiam,479445,Beddad hospital,Kadiam,27-Aug-19,Medical ,Bedded Hospital,16.91447447,81.81187816,533125,"CHC,Kadiyam, SH41, Vemagiri, Kadiam, East Godavari District, Andhra Pradesh, 533125, India"
256,Andhra Pradesh,Chittoor,Bangarupalem,Jambuvaripalli,448769,PHC HOSPITAL,jambuvaripalli,06-Sep-19,Medical ,Bedded Hospital,13.19610067,78.91464849,517416,"Bangarupalyam Police Station, Bangarupalem Main Road, Bangarupalem, Chittoor District, Andhra Pradesh, 517416, India"
257,Andhra Pradesh,East Godavari,Kadiam,Kadiam,479445,Cammunity helth centre,Kadiam,27-Aug-19,Medical ,Community Health Centre,16.91464743,81.81157942,533125,"CHC,Kadiyam, SH41, Vemagiri, Kadiam, East Godavari District, Andhra Pradesh, 533125, India"
258,Andhra Pradesh,Y S R Kadapa,Kalasapadu,Kalasapadu,487584,Beaded Hospital,Kalasapadu,23-Aug-19,Medical ,Bedded Hospital,15.10618939,78.94343739,516217,"Akkivaripalle, Kalasapadu, YSR District, Andhra Pradesh, 516217, India"
259,Andhra Pradesh,Krishna,Jaggayyapeta,Jayantipuram,459253,community health center,jayanthipuram,21-Aug-19,Medical ,Community Health Centre,16.86075731,80.11501494,521175,"Jayanthipuram, Jaggayyapeta, NTR District, Andhra Pradesh, 521175, India"
260,Andhra Pradesh,Guntur,Machavaram,Machavaram,635400,Bedded hospital ,Pillutla Road ,06-Sep-19,Medical ,Bedded Hospital,16.56773473,79.86637787,522435,"Pillutla, Mallavolu, Machavaram, Palnadu District, Andhra Pradesh, 522435, India"
261,Andhra Pradesh,Visakhapatnam,Padmanabham,Samayyavalasa,945071,Beaded Hospital,near sanghivalasa,18-Aug-19,Medical ,Bedded Hospital,17.92326773,83.42004107,531162,"NH16, Karadapeta, Gollapalem, Bheemunipatnam, Visakhapatnam District, Andhra Pradesh, 531162, India"
262,Andhra Pradesh,Vizianagaram,Salur,Kurukutti,606119,Communty Helath Center ST,Kurukutti,12-Sep-19,Medical ,Community Health Centre,18.58870862,83.0929217,535593,"Dandigam, Velagavalasa, Salur, Parvathipuram Manyam District, Andhra Pradesh, 535593, India"
263,Andhra Pradesh,Y S R Kadapa,Lakkireddipalle,Lakkireddipalle,615726,community health center ,lakkireddypalli ,05-Sep-19,Medical ,Community Health Centre,14.18651242,78.70680255,516257,"PHC, Lakkireddypalli, Lakkireddypalli, Lakkireddipalle, Annamayya District, Andhra Pradesh, 516257, India"
264,Andhra Pradesh,Prakasam,Pamur,Kambaladinne,496687,kambaladinnea government aayurvedic hospital,kambaladinnea ,25-Aug-19,Medical ,Community Health Centre,15.0475,79.540455,516433,"Kambhaladinne, Pamur, Prakasam District, Andhra Pradesh, India"
265,Andhra Pradesh,Nellore,Naidupeta,L A Sagaram,610744,cumunity health centre ,LASAGARAM,20-Aug-19,Medical ,Community Health Centre,13.90751333,79.89955667,524126,"Naidupeta, Naidupet, Tirupati District, Andhra Pradesh, 524126, India"
266,Andhra Pradesh,Anantapur,Lepakshi,Kallur,492081,Bedded hospital,Kallur,08-Sep-19,Medical ,Bedded Hospital,13.83538562,77.56119382,523304,"Kolluru, Lepakshi, Sri Sathya Sai District, Andhra Pradesh, India"
267,Andhra Pradesh,East Godavari,Malikipuram,Malikipuram,661124,Sri Sankar Private Hospital,Malikipuram,30-Aug-19,Medical ,Bedded Hospital,16.40633894,81.80221233,533253,"Sri Sankar Nursing Home, , Srungarapadu, Sakhinetipalle, East Godavari District, Andhra Pradesh, 533253, India"
268,Andhra Pradesh,Guntur,Cherukupalle,Kanagala,498827,community hospital,kanagala,13-Aug-19,Medical ,Community Health Centre,16.08245333,80.74476167,522259,"Kanagala Main Road, Kanagala, Cherukupalle H/O Arumbaka, Bapatla District, Andhra Pradesh, 522259, India"
269,Andhra Pradesh,West Godavari,Thallapudi,Malakapalli,658196,Bedded Hospital,Malakapalli,01-Aug-19,Medical ,Bedded Hospital,17.06633378,81.66046953,534340,"GOVT. Primary Hospital, Opp Veternary Hospital, Malakapalli, Tallapudi, West Godavari District, Andhra Pradesh, 534340, India"
270,Andhra Pradesh,Prakasam,Santhanuthlapadu,M Vemulapadu,634790,phc,m vemulapadi,05-Sep-19,Medical ,Bedded Hospital,15.44421944,79.90249735,533106,"Vemulapadu, Santhanuthala Padu, Prakasam District, Andhra Pradesh, India"
271,Andhra Pradesh,Krishna,Kankipadu,Kankipadu,504743,CHC,CHC,22-Aug-19,Medical ,Community Health Centre,16.43757439,80.76512597,521151,"Kankipadu, Krishna District, Andhra Pradesh, 521151, India"
272,Andhra Pradesh,Visakhapatnam,Hukumpeta,Hukumpeta,427787,bedded hospital,"hukumepta, opp petrol bunk",20-Aug-19,Medical ,Bedded Hospital,18.14862718,82.69330826,531077,"Dalgummadi, Hukkumpeta, Hukumpeta, Andhra Pradesh, India"
273,Andhra Pradesh,Srikakulam,Pathapatnam,Koduru,569868,Community Health Centre,koduru,07-Sep-19,Medical ,Community Health Centre,18.72445125,84.08654758,532213,"Temburu - Pathapatnam Road, Chinna Logidi, Pedda Logidi, Pathapatnam, Srikakulam District, Andhra Pradesh, 532213, India"
274,Andhra Pradesh,Chittoor,Karvetinagar,Karvetinagar,518353,Bessed Hospital,Karvetinar,03-Sep-19,Medical ,Bedded Hospital,13.41365042,79.4479994,517582,"PHC,Karvetinagar, Near MRO Office, Karvetinagar, Chittoor District, Andhra Pradesh, 517582, India"
275,Andhra Pradesh,Visakhapatnam,Gudem Kothaveedhi,Upper Sileru Project Site Camp,1076576,Bedded Hospital,Upper sileru,30-Aug-19,Medical ,Bedded Hospital,18.04685279,82.03608193,530001,"Narsipatnam - Chintapalli - Sileru Road, Dabbakota, Dharakonda, Gudem Kotha Veedhi, Andhra Pradesh, India"
276,Andhra Pradesh,Anantapur,Obuladevaracheruvu,Kondakamarla,576869,Health center,Kondakamarla,06-Aug-19,Medical ,Community Health Centre,14.06802952,77.95675617,515531,"Konda Komarla, Obuladevaracheruvu, Sri Sathya Sai District, Andhra Pradesh, 515531, India"
277,Andhra Pradesh,Visakhapatnam,Butchayyapeta,Turakalapudi,1066247,phc center,turakalapudi,01-Aug-19,Medical ,Bedded Hospital,17.73489506,82.86185649,531026,"Sitayyapeta, Butchayyapeta, Anakapalli District, Andhra Pradesh, India"
278,Andhra Pradesh,Visakhapatnam,Rolugunta,Rolugunta,924845,matha sishu health centre,Rolugunta -  kovvuru road,02-Aug-19,Medical ,Bedded Hospital,17.71217474,82.6640679,531116,"Rolugunta, Anakapalli District, Andhra Pradesh, 531116, India"
279,Andhra Pradesh,Chittoor,Puthalapattu,Vajjireddipalle Hw,1085200,RVS Medical Hospital,Muthirevula,03-Sep-19,Medical ,Bedded Hospital,13.27345278,79.11989697,517127,"NH40, Muttireta, Puthalapattu, Chittoor District, Andhra Pradesh, 517127, India"
280,Andhra Pradesh,Kurnool,Kosigi,Kosigi,582103,KOSIGI BEDDED  HOSPITAL,KOSIGI,17-Aug-19,Medical ,Bedded Hospital,15.85442716,77.23929518,518313,"Kosigi, Kurnool District, Andhra Pradesh, 518313, India"
281,Andhra Pradesh,Krishna,Jaggayyapeta,Budavada,182912,community health center,Budavada,22-Aug-19,Medical ,Community Health Centre,16.8760105,80.02913959,521175,"Budawada, Jaggayyapeta, NTR District, Andhra Pradesh, 521175, India"
282,Andhra Pradesh,Kurnool,Owk,Uppalapadu,1075972,C Primary health Centre,Uppalapadu,13-Aug-19,Medical ,Community Health Centre,15.17002376,78.04429722,534449,"Owk Road, Uppalapadu, Owk Mandal, Nandyal District, Andhra Pradesh, India"
283,Andhra Pradesh,Srikakulam,Mandasa,Haripurm,409453,community health center,in village,05-Sep-19,Medical ,Community Health Centre,18.84656847,84.50253367,532234,"Haripuram, Mandasa, Srikakulam District, Andhra Pradesh, 532234, India"
284,Andhra Pradesh,East Godavari,Malikipuram,Lakkavaram,615652,Suryachandra Private hospital,lakkavaram,29-Aug-19,Medical ,Bedded Hospital,16.42417676,81.84365123,533254,"Lakkavaram, Malikipuram, Dr. B. R. Ambedkar Konaseema District, Andhra Pradesh, 533254, India"
285,Andhra Pradesh,Anantapur,Lepakshi,Lepakshi,625595,Hospital,Lepakshi,07-Sep-19,Medical ,Bedded Hospital,13.80340104,77.61004367,515331,"Primary Health Centre, Lepakshi, Chilamatturu Lepakshi Hindupur Road, Lepakshi, Sri Sathya Sai District, Andhra Pradesh, 515331, India"
286,Andhra Pradesh,Krishna,Vatsavai,Lingala,626916,Community health center,Lingala,24-Aug-19,Medical ,Community Health Centre,16.95267323,80.21883142,521402,"Jaggayyapeta - Wyra Road, Lingala, Vatsavai, NTR District, Andhra Pradesh, 521402, India"
287,Andhra Pradesh,Guntur,Narasaraopeta,Lingamguntlacolony,626999,beded hospital,lingamguntla colony,27-Sep-19,Medical ,Bedded Hospital,16.23006387,80.03686583,522600,"Balayyanagar, Narasaraopet, Palnadu District, Andhra Pradesh, 522600, India"
288,Andhra Pradesh,Visakhapatnam,Anandapuram,Lodagalavanipalem,627918,PH centre,Village entrance,17-Aug-19,Medical ,Bedded Hospital,17.89384728,83.37165019,530052,"Itlavanipalem, Anandapuram, Visakhapatnam District, Andhra Pradesh, 530052, India"
289,Andhra Pradesh,Kurnool,Kodumur,Kodumur,569813,bedded hospital govt,bellary road kodumur,03-Aug-19,Medical ,Bedded Hospital,15.68068744,77.76128048,518464,"Kurnool - Ballari Road, Kodumuru, Kodumur, Kurnool District, Andhra Pradesh, 518464, India"
290,Andhra Pradesh,Krishna,Gudlavalleru,Kowtharam,588970,bedded hospital,chevendra road,18-Aug-19,Medical ,Bedded Hospital,16.33504811,81.08229817,521331,"Kavutaram, Gudlavalleru, Krishna District, Andhra Pradesh, 521331, India"
291,Andhra Pradesh,Guntur,Ipuru,Ipuru,434423,samagika arogya kendram,ipur,20-Aug-19,Medical ,Bedded Hospital,16.22869107,79.77317423,522658,"Community Health centre, Eepur, Ipur, Ipuru, Palnadu District, Andhra Pradesh, 522658, India"
292,Andhra Pradesh,East Godavari,Jaggampeta,Jaggampeta,441156,community health centre,jaggampeta,03-Sep-19,Medical ,Community Health Centre,17.1835003,82.06248488,533435,"CHC,Jaggampeta, , Jaggampeta, East Godavari, Kakinada District, Andhra Pradesh, 533435, India"
293,Andhra Pradesh,Y S R Kadapa,Sidhout,Sidhout,989064,GOVT Community Hospital at Siddavatam,Siddavatam,04-Sep-19,Medical ,Community Health Centre,14.46801735,78.96919855,516237,"Siddavatam Fort, Kadapa - Porumamilla Road, Siddavatam, Sidhout, YSR District, Andhra Pradesh, 516237, India"
294,Andhra Pradesh,West Godavari,Eluru,Jayaprakashnagar,459272,hospital ,jayaprakash nagar,09-Sep-19,Medical ,Community Health Centre,16.71213833,81.12157333,534005,"Asram Hospital, , Gun Bazar Road, Powerpet, Eluru, West Godavari District, Andhra Pradesh, 534005, India"
295,Andhra Pradesh,Srikakulam,Tekkali,Konusulakotturu,578739,BeddedHospital,Konusulakotturu,07-Sep-19,Medical ,Bedded Hospital,18.57040167,84.194605,532201,"Government Hospital,Konusulakotturu, NH16, Boppayyipuram, Tekkali, Srikakulam District, Andhra Pradesh, 532201, India"
296,Andhra Pradesh,Krishna,Mylavaram,Mylavaram,735909,community health center,mylavaram village mylavaram mandal,29-Aug-19,Medical ,Community Health Centre,16.76550447,80.64433954,521230,"NH30, Mylavaram, NTR District, Andhra Pradesh, 521230, India"
297,Andhra Pradesh,Krishna,Vatsavai,Mangollu,672343,Community health center,Mangollu,05-Sep-19,Medical ,Community Health Centre,16.94406415,80.13917372,521178,"Mongollu, Vatsavai, NTR District, Andhra Pradesh, 521178, India"
298,Andhra Pradesh,Anantapur,Uravakonda,Uravakonda,1077333,govt community health centre ,uravakonda ,22-Aug-19,Medical ,Bedded Hospital,14.94005714,77.25732822,515812,"Guntakal - Uravakonda Road, Uravakonda, Anantapur District, Andhra Pradesh, 515812, India"
299,Andhra Pradesh,Guntur,Vinukonda,Dondapadu,308652,bedded hospital ,dondapadu,20-Aug-19,Medical ,Bedded Hospital,16.06510907,79.65581581,522612,"Dondapadu Road, Dondapadu, Vinukonda, Palnadu District, Andhra Pradesh, 522612, India"
300,Andhra Pradesh,Visakhapatnam,Bheemunipatnam,Kethinipeta,536159,Community health centre,Bheemunipatnam ,28-Aug-19,Medical ,Community Health Centre,17.887925,83.45198833,531163,"Bheemunipatnam, Visakhapatnam District, Andhra Pradesh, 531163, India"
301,Andhra Pradesh,West Godavari,Bheemavaram,Kovvada,588865,dental hospital,garagaparru road,06-Sep-19,Medical ,Bedded Hospital,16.56958297,81.5259269,534200,"Bhimavaram - Pippara Road, Sivaraopeta, Vishnupur, Bhimavaram, West Godavari District, Andhra Pradesh, 534200, India"
302,Andhra Pradesh,West Godavari,Pedavegi,Duggirala,313818,general and dental hospital,pedavegi,06-Sep-19,Medical ,Bedded Hospital,16.73056072,81.06559264,534003,"Duggirala, Pedavegi, Eluru District, Andhra Pradesh, 534003, India"
303,Andhra Pradesh,Srikakulam,Meilaputti,Meliaputti,697311,community health center,meliaputti,04-Sep-19,Medical ,Community Health Centre,18.772455,84.17370667,532216,"Naupada - Tekkali - Meliyaputti Road, Jalakalingupuram, Meliyaputti, Meliaputti, Srikakulam District, Andhra Pradesh, 532216, India"
304,Andhra Pradesh,Y S R Kadapa,Rajampet,Eguvamandapalli,322892,Community health center,Eguvamandapalli GP,10-Sep-19,Medical ,Community Health Centre,14.24550159,79.07881569,516150,"Agraharam, Rajampet, Annamayya District, Andhra Pradesh, 516150, India"
305,Andhra Pradesh,Prakasam,Maddipadu,Maddipadu,638213,bedded hospital,maddipadu,06-Sep-19,Medical ,Bedded Hospital,15.62203086,80.02213586,523211,"Maddipadu, Prakasam District, Andhra Pradesh, 523211, India"
306,Andhra Pradesh,Prakasam,Kondapi,Kondapi,577153,Thirty Bedded Hospital,Kondepi,11-Aug-19,Medical ,Bedded Hospital,15.41355269,79.85649127,523270,"Government Hospital,Kondapi, APSRTC Bus Stand Road, Kondapi, Prakasam District, Andhra Pradesh, 523270, India"
307,Andhra Pradesh,Chittoor,Kalikiri,Mahal,645188,Community Health Centre,Mahal,21-Aug-19,Medical ,Community Health Centre,13.77504812,78.79276749,517235,"Mahal, Kalikiri, Annamayya District, Andhra Pradesh, 517235, India"
308,Andhra Pradesh,Visakhapatnam,Araku Valley,Baski,111955,community health center ,baski,09-Sep-19,Medical ,Community Health Centre,18.23532149,82.89061583,531149,"Junkramvalasa, Baski, Araku Valley, Andhra Pradesh, India"
309,Andhra Pradesh,Anantapur,Mudigubba,Malakavemula,658235,Hospital,The doctor Bedded Hospital  Malakavemaula ,22-Aug-19,Medical ,Bedded Hospital,14.26658119,78.0581026,515511,"Anantapur - Krishnagiri Road, Mudigubba, Sri Sathya Sai District, Andhra Pradesh, 515511, India"
310,Andhra Pradesh,Anantapur,Kothacheruvu,Mylasamudram,735906,Sub Centre,Mylasamudram,07-Aug-19,Medical ,Community Health Centre,14.66294033,77.61358158,515001,"kadiri road, VijayaNagar Colony, Anantapur, Anantapur District, Andhra Pradesh, 515001, India"
311,Andhra Pradesh,Prakasam,Parchur,Upputur,1077036,Dispensary,Upputur,24-Sep-19,Medical ,Community Health Centre,15.95343833,80.28717667,523169,"Bapatla - Paruchuru Road, Upputuru, Upputuru RV, Parchur, Bapatla District, Andhra Pradesh, 523169, India"
312,Andhra Pradesh,Y S R Kadapa,Chakrayapet,Nagulagattupalli,749091,primaryhealthcentre,surabhi,03-Sep-19,Medical ,Community Health Centre,14.22258689,78.53791734,516259,"Rayachoti - Vempalle Road, Mahabubnagar, Payalapalle, Chakrayapet, YSR District, Andhra Pradesh, 516259, India"
313,Andhra Pradesh,Guntur,Ipuru,Kotcherla,583288,Hospital ,kotcherla,08-Sep-19,Medical ,Bedded Hospital,16.15059026,79.762186,522646,"Kotcharla - Elchuru Road, Kottaluru, Savalyapuram, Palnadu District, Andhra Pradesh, 522646, India"
314,Andhra Pradesh,Prakasam,Chimakurthi,Bandlamudi,89422,bedded hospital,bandlamudi,08-Aug-19,Medical ,Bedded Hospital,15.60787731,79.90046928,523226,"Government Hospital, Bandlamudi, Darsi - Chimakurthy Road, Patimidapalem, Chimakurthi, Prakasam District, Andhra Pradesh, 523226, India"
315,Andhra Pradesh,Visakhapatnam,Bheemunipatnam,Nerellavalasa Colony,778418,community health centre ,Bheemunipatnam,28-Aug-19,Medical ,Community Health Centre,17.88790667,83.45190833,531163,"Bheemunipatnam, Visakhapatnam District, Andhra Pradesh, 531163, India"
316,Andhra Pradesh,Anantapur,Narpala,Narpala,763313,Government Hospital,Narpala,15-Aug-19,Medical ,Bedded Hospital,14.70775738,77.80433943,515425,"Narpala, Anantapur District, Andhra Pradesh, 515425, India"
317,Andhra Pradesh,Chittoor,Baireddi Palle,Baireddipalle,73702,PRIMARY Health Centre,Baireddipalli,27-Aug-19,Medical ,Community Health Centre,13.09106039,78.6111272,517415,"Krishnakiri - Kuppam - Madanapalle, Mittukurapalle, Chilampalle, Baireddipalle, Chittoor District, Andhra Pradesh, 517415, India"
318,Andhra Pradesh,East Godavari,Malikipuram,Battelanka,114845,Sri Satya Private hospital,battelanka,29-Aug-19,Medical ,Bedded Hospital,16.41607843,81.83975325,533254,"Bettalanka, Malikipuram, Dr. B. R. Ambedkar Konaseema District, Andhra Pradesh, 533254, India"
319,Andhra Pradesh,Srikakulam,Kothuru,Kotturu,588168,community health center,kotturu village kothuru mandal,30-Aug-19,Medical ,Community Health Centre,18.77875521,83.88033982,532455,"Palakonda - Hadobhangi Road, Nivagam, Kothuru, Srikakulam District, Andhra Pradesh, 532455, India"
320,Andhra Pradesh,Kurnool,Banaganapalle,Banaganapalle,86399,Community Health Centre,petrol Bank center,08-Aug-19,Medical ,Community Health Centre,15.32050811,78.22619753,518124,"NH544D, Banaganapalle, Nandyal District, Andhra Pradesh, 518124, India"
321,Andhra Pradesh,Srikakulam,Saravakota,Budithi,184457,Community Health Centre,Budithi,06-Sep-19,Medical ,Community Health Centre,18.54536308,84.01159065,532400,"Budithi, Saravakota, Srikakulam District, Andhra Pradesh, 532400, India"
322,Andhra Pradesh,Srikakulam,Saravakota,Budithi,184457,Bedded Hospital,Budithi,14-Oct-19,Medical ,Bedded Hospital,18.54498499,84.01166467,532400,"Budithi, Saravakota, Srikakulam District, Andhra Pradesh, 532400, India"
323,Andhra Pradesh,West Godavari,Buttayagudem,Buttaigudem,187306,Community Health center and bedded hospital,Buttaigudem,22-Aug-19,Medical ,Community Health Centre,17.20183606,81.31998024,534448,"Buttaya Gudem, Buttayagudem, Eluru District, Andhra Pradesh, 534448, India"
324,Andhra Pradesh,Guntur,Nuzendla,Nuzendla,792948,bedded hospital,Nuzendla,19-Aug-19,Medical ,Community Health Centre,15.9239699,79.73957688,522660,"Public Health Centre, Vinukonda - Mupparajuvaripalem Road, Nujendla, Guntur, Palnadu District, Andhra Pradesh, 522660, India"
325,Andhra Pradesh,Guntur,Nuzendla,Nuzendla,792948,beddedhospital,Nuzendla,19-Aug-19,Medical ,Bedded Hospital,15.92405687,79.73957017,522660,"Public Health Centre, Vinukonda - Mupparajuvaripalem Road, Nujendla, Guntur, Palnadu District, Andhra Pradesh, 522660, India"
326,Andhra Pradesh,Guntur,Macherla,Koppunur,579786,Hospital,Main road,05-Sep-19,Medical ,Bedded Hospital,16.48582185,79.33601722,522426,"Government Hospital, Koppunur, Macherla - Vijayapuri South Road, Kottapalle, Macherla, Palnadu District, Andhra Pradesh, 522426, India"
327,Andhra Pradesh,Visakhapatnam,Madugula,KJ Puram,567519,Bedded hospital,KJ Puram,04-Sep-19,Medical ,Bedded Hospital,17.87107067,82.84649189,531028,"Primary Health Centre, K.J Puram, Near Main Road, Madugula, Visakhapatnam District, Andhra Pradesh, 531028, India"
328,Andhra Pradesh,West Godavari,Palakoderu,Korukollu,581624,Byrraju Foundation Hospital,Korukollu,07-Sep-19,Medical ,Community Health Centre,16.62348719,81.57260497,533309,"Korukollu, Palacoderu, West Godavari District, Andhra Pradesh, 533309, India"
329,Andhra Pradesh,West Godavari,Palakoderu,Korukollu,581624,Byrraju Foundation Hospital,Korukollu,07-Sep-19,Medical ,Community Health Centre,16.62348138,81.5726859,533309,"Korukollu, Palacoderu, West Godavari District, Andhra Pradesh, 533309, India"
330,Andhra Pradesh,Krishna,Kalidindi,Korukollu,581626,community health center,beside R&B road,16-Aug-19,Medical ,Community Health Centre,16.48521002,81.24355618,521343,"Primary Health Centre, Korukollu, SH310, Korukollu, Kalidindi, Krishna District, Andhra Pradesh, 521343, India"
331,Andhra Pradesh,East Godavari,Chintur,Rathnapuram,1138057,Bedded hospital,Rathnapuram,30-Aug-19,Medical ,Bedded Hospital,17.7560029,81.41237299,507113,"Ratnapuram, Chintur, Andhra Pradesh, 507113, India"
332,Andhra Pradesh,Anantapur,Kothacheruvu,Kodapaganipalle,568589,Community Health Center,Kodapaganipalli,03-Aug-19,Medical ,Community Health Centre,14.23935615,77.7545913,515144,"Kodur- Dharmavaram Road, Kothacheruvu, Sri Sathya Sai District, Andhra Pradesh, 515144, India"
333,Andhra Pradesh,Y S R Kadapa,Kodur,Kodur,569844,Community health centre,Kodur,29-Aug-19,Medical ,Community Health Centre,13.96198958,79.3512044,516101,"CHC,Koduru, Chitvel - Kodur Road, Kodur, Sri Potti Sriramulu Nellore District, Andhra Pradesh, 516101, India"
334,Andhra Pradesh,Visakhapatnam,Kotauratla,Kotauratla,583211,Vidya vidan parishad Community health Centre ,Kotauratla ,27-Aug-19,Medical ,Bedded Hospital,17.56558929,82.68278074,531085,"Hosanna Hospital, Narsipatnam - Revupolavaram Road, Gaddapulova, Jalluru, Visakhapatnam (Urban), Anakapalli District, Andhra Pradesh, 531085, India"
335,Andhra Pradesh,Krishna,Bantumilli,Bantumilli,95614,Govt Hospital,bantumilli,07-Sep-19,Medical ,Community Health Centre,16.37194263,81.26540085,521324,"Janakirampuram, Bantumilli, Krishna District, Andhra Pradesh, 521324, India"
336,Andhra Pradesh,Srikakulam,Sompeta,Baruva,108668,community health center,near police station,05-Aug-19,Medical ,Community Health Centre,18.88558833,84.58135,532263,"Government Hospital, Baruva, Korlam - Baruva Road, Korlam, Sompeta, Srikakulam District, Andhra Pradesh, 532263, India"
337,Andhra Pradesh,Krishna,Penuganchiprolu,Konakanchi,576294,community health center,Konakanchi,22-Aug-19,Medical ,Community Health Centre,16.82590482,80.19761481,522185,"Konakanchi, Penuganchiprolu, NTR District, Andhra Pradesh, 522185, India"
338,Andhra Pradesh,Anantapur,Vajrakarur,Konakondla,576309,Community health centre,konakondla,27-Aug-19,Medical ,Community Health Centre,15.10438653,77.36420595,515842,"Guntakal - Uravakonda Road, Konakondla, Vajrakarur, Anantapur District, Andhra Pradesh, 515842, India"
339,Andhra Pradesh,Guntur,Pittalavanipalem,Khajipalem,540318,Government ayurveda hospital,khajipalem,08-Aug-19,Medical ,Community Health Centre,15.96888664,80.60873745,522329,"Greta Mandiram, Repalle - Pittalavanipalem Road, Khajipalem, Pittalavanipalem, Bapatla District, Andhra Pradesh, 522329, India"
340,Andhra Pradesh,Anantapur,Bathalapalle,Bathalapalle,114041,RDT hospital,Bathalapalle,08-Aug-19,Medical ,Bedded Hospital,14.51328418,77.77215746,515661,"Bathalapalle, Sri Sathya Sai District, Andhra Pradesh, 515661, India"
341,Andhra Pradesh,Nellore,Kodavalur,Kodavalur,568819,bedded hospital,Kodavalur ,05-Aug-19,Medical ,Bedded Hospital,14.56361061,80.00089243,524366,"Kodavaluru, Kodavalur, Sri Potti Sriramulu Nellore District, Andhra Pradesh, 524366, India"
342,Andhra Pradesh,Srikakulam,Srikakulam,Vamsadhara Nagar colony,1257434,baggu Sarojini Devi hospital,illisipuram,06-Sep-19,Medical ,Bedded Hospital,18.30918727,83.89743395,532001,"Bhadirivanipeta, Srikakulam, Srikakulam District, Andhra Pradesh, 532001, India"
343,Andhra Pradesh,Chittoor,Palamaner,Kolamasanapalle,572938,Rathna Ayurveda Hospital,Kolamasanapalle,09-Sep-19,Medical ,Bedded Hospital,13.14673896,78.67403454,517432,"Kakkanuru, Nellipatla, Baireddipalle, Chittoor District, Andhra Pradesh, 517432, India"
344,Andhra Pradesh,Chittoor,Palamaner,Kolamasanapalle,572938,Primary health centre,kolamasanapalli,06-Sep-19,Medical ,Bedded Hospital,13.14969833,78.67234167,517432,"Government Hospital,Kolamasanapalli, Near Government High School, Palamaner, Chittoor District, Andhra Pradesh, 517432, India"
345,Andhra Pradesh,Krishna,Kankipadu,Kolavennu,573431,Govt Ayurveda Hospital,Kolavennu,27-Aug-19,Medical ,Community Health Centre,16.43289321,80.79839657,521151,"Kolavennu, Kankipadu, Krishna District, Andhra Pradesh, 521151, India"
346,Andhra Pradesh,Chittoor,Thamballapalle,Kosuvaripalle,582259,medical ,kosuvaripalle,07-Sep-19,Medical ,Bedded Hospital,13.75051909,78.43591941,517418,"PHC,Kosuvaripalli, Near Post Office, Thamballapalle, Chittoor District, Andhra Pradesh, 517418, India"
347,Andhra Pradesh,Srikakulam,Rajam,Rajam,891083,rajam hospital,rajam,24-Aug-19,Medical ,Bedded Hospital,18.44995304,83.65967516,532127,"GHS RAJAM, Chilakapalem - Ramabhadrapuram - Rayagada Road, Rajam, Vizianagaram District, Andhra Pradesh, 532127, India"
348,Andhra Pradesh,Srikakulam,Rajam,Rajam,891083,St Anns hospital,rajam,24-Aug-19,Medical ,Bedded Hospital,18.45100603,83.65067939,532127,"RCM CHURCH, Chilakapalem - Ramabhadrapuram - Rayagada Road, Rajam, Vizianagaram District, Andhra Pradesh, 532127, India"
349,Andhra Pradesh,Nellore,Kota,Kota,582578,Government Bedded Hospital ,Kota ,07-Sep-19,Medical ,Bedded Hospital,14.03430474,80.04438929,524411,"Government Hospital, Gudur - Tuplipalem Road, Kota, Sri Potti Sriramulu Nellore District, Andhra Pradesh, 524411, India"
350,Andhra Pradesh,Guntur,Kollipara,Kollipara,574935,bedded hospital,kollipara,04-Aug-19,Medical ,Bedded Hospital,16.29207212,80.74883474,522304,"Gudibandivaripalem, Kollipara, Guntur District, Andhra Pradesh, 522304, India"
351,Andhra Pradesh,Prakasam,Ballikuruva,Konidena,578364, ayrvedic hospital,konedana,07-Sep-19,Medical ,Community Health Centre,16.01446912,80.05807604,526330,"Konidena, Ballikurava, Bapatla District, Andhra Pradesh, 526330, India"
352,Andhra Pradesh,Chittoor,Gudipala,Kilaripalle,563855,community health center,chittoor district ap,04-Sep-19,Medical ,Community Health Centre,13.12135418,79.12106652,517132,"NH40, Arulpuram, Muttukurupalli, Gudipala, Chittoor District, Andhra Pradesh, 517132, India"
353,Andhra Pradesh,Vizianagaram,Bhoghapuram,Bhgapuram,148921,CHC Bhogapuram,Bhogapuram,16-Sep-19,Medical ,Community Health Centre,18.04989667,83.514655,535216,"Community Health Centre, NH16, Sundarapeta, Bhogapuram, Vizianagaram District, Andhra Pradesh, 535216, India"
354,Andhra Pradesh,Visakhapatnam,Makavarapalem,Kondala Agraharam,576918,Bedded Hospital ,Kondala Agraharam ,27-Aug-19,Medical ,Bedded Hospital,17.63088439,82.69389893,531113,"Emmanuel General Hospital, Narsipatnam - Tallapalem Road, Gangavaram, Kondala Agraharam, Visakhapatnam (Urban), Anakapalli District, Andhra Pradesh, 531113, India"
355,Andhra Pradesh,East Godavari,Kothapeta,Kothapeta,584933,bedded hospital,Kothapeta,10-Sep-19,Medical ,Bedded Hospital,16.7181393,81.8942324,533223,"Kothapeta, Dr. B. R. Ambedkar Konaseema District, Andhra Pradesh, 533223, India"
356,Andhra Pradesh,Guntur,Pedakakani,Rcpalem,918842,Mental illness hospital,RC palem,27-Aug-19,Medical ,Bedded Hospital,16.29014179,80.49461879,522001,"Ramachandrapalem, Pedakakani, Guntur District, Andhra Pradesh, 522001, India"
357,Andhra Pradesh,Kurnool,Koilkuntla,Koilkuntla,571211,ap vidya vidhana parishat  samajika arogya kendram,gandhicentre,14-Aug-19,Medical ,Bedded Hospital,15.23218,78.31885667,518134,"Government Hospital, Koilkuntla, Nandyal - Thimmanayunipeta Road, Koilakuntla, Kurnool, Nandyal District, Andhra Pradesh, 518134, India"
358,Andhra Pradesh,Anantapur,Garladinne,Kotanka,583033,Health Center,Kotanka ,07-Aug-19,Medical ,Community Health Centre,14.7719115,77.53078499,515731,"Martadu, Garladinne, Anantapur District, Andhra Pradesh, 515731, India"
359,Andhra Pradesh,East Godavari,Thondangi,Talapantivaripeta,1028091,gmrhospital,talapantivaripeta,31-Aug-19,Medical ,Bedded Hospital,17.17195522,82.42143453,533447,"Vakalapudi - Edatam Road, Addaripeta, Thondangi, Kakinada District, Andhra Pradesh, 533447, India"
360,Andhra Pradesh,Guntur,Pittalavanipalem,Pvpalem,882817,Community health center,pittalavari Palem,07-Aug-19,Medical ,Community Health Centre,15.98341507,80.6317471,522329,"PHC, P.V.Palem, Opposite R&B Guest House, Pittalavanipalem, Guntur District, Andhra Pradesh, 522329, India"
361,Andhra Pradesh,Guntur,Pittalavanipalem,Pvpalem,882817,bedded hospital,pvpalem,21-Aug-19,Medical ,Bedded Hospital,15.98356463,80.63182433,522329,"PHC, P.V.Palem, Opposite R&B Guest House, Pittalavanipalem, Guntur District, Andhra Pradesh, 522329, India"
362,Andhra Pradesh,Prakasam,Korisapadu,Medarametla,690922,jayanthi narsing home,medaramitla,08-Aug-19,Medical ,Bedded Hospital,15.72201693,80.02605267,523212,"Medarametla, Korisapadu, Bapatla District, Andhra Pradesh, 523212, India"
363,Andhra Pradesh,Nellore,Kavali,Thallapalem,1044536,Medical,Village entrace,16-Aug-19,Medical ,Community Health Centre,14.8615809,80.02398709,524201,"Tellapalem, Kavali, Sri Potti Sriramulu Nellore District, Andhra Pradesh, 524201, India"
364,Andhra Pradesh,Kurnool,Midthur,Midthur,701473,samagica arogya kendram,near MPDO office,07-Aug-19,Medical ,Community Health Centre,15.77114757,78.28759982,518405,"Miduthuru, Midthur, Nandyal District, Andhra Pradesh, India"
365,Andhra Pradesh,Anantapur,Yellanur,Thimmampalli,1050283,bedded hospital ,thimmampalli ,05-Sep-19,Medical ,Bedded Hospital,14.62330167,78.00182873,515465,"PHC,Thimmampalli, Near ZPH School, Yellanur, Anantapur District, Andhra Pradesh, 515465, India"
366,Andhra Pradesh,Nellore,Kovur,kovur,588857,SAMAJIKA AROGYA KENDRAM,KOVUR MAIN ROAD,23-Aug-19,Medical ,Community Health Centre,14.51147034,79.98680381,524137,"Kovur, Sri Potti Sriramulu Nellore District, Andhra Pradesh, 524137, India"
367,Andhra Pradesh,Chittoor,Ramasamudram,Ramasamudram,900648,Community Health Center,Ramasamudram,08-Aug-19,Medical ,Community Health Centre,13.3689008,78.42402107,517441,"Madanapalle - Chembakuru - Ramasamudram Road, Basavanakotta, Kotturu, Ramasamudram, Annamayya District, Andhra Pradesh, 517441, India"
368,Andhra Pradesh,Visakhapatnam,Atchutapuram,Melupaka Jagannadhapuram,697942,sub centre,main road,01-Oct-19,Medical ,Community Health Centre,17.59407403,82.92918772,531033,"Uppavaram, Atchutapuram, Anakapalli District, Andhra Pradesh, 531033, India"
369,Andhra Pradesh,Y S R Kadapa,Simhadripuram,Bidinamcherla,161103,communityhelthcenter,Bidinamcherla,19-Aug-19,Medical ,Community Health Centre,14.57787167,78.07922833,516454,"Gandluru - Kondapuram - Simhadripuram - Velidandla Road, Simhadripuram, YSR District, Andhra Pradesh, 516454, India"
370,Andhra Pradesh,West Godavari,Denduluru,Vegavaram,1092200,bedded hospital,vegavaram,03-Aug-19,Medical ,Bedded Hospital,16.7643684,81.11548429,534450,"Vegavaram, Denduluru, Eluru District, Andhra Pradesh, 534450, India"
371,Andhra Pradesh,Chittoor,Venkatagiri Kota,Venkatagirikota,1094604,Community health Centre,Venkatagiri Kota ,04-Sep-19,Medical ,Community Health Centre,13.0013796,78.48958701,517424,"NH42;N75, Venkatagirikota, Chittoor District, Andhra Pradesh, 517424, India"
372,Andhra Pradesh,Y S R Kadapa,T Sundupalle,Rayavaram,918547,Bedded Hospital,Rayavaram,17-Aug-19,Medical ,Bedded Hospital,13.98636,78.973275,516129,"Veterinur, Rayavaram, T Sundupalle, Annamayya District, Andhra Pradesh, 516129, India"
373,Andhra Pradesh,Krishna,Jaggayyapeta,Mukteswarapuram,722874,Community health center,Mukteswarapuram,05-Sep-19,Medical ,Community Health Centre,16.90197125,80.2887851,521190,"Anigandlapadu, Penuganchiprolu, NTR District, Andhra Pradesh, 521190, India"
374,Andhra Pradesh,Nellore,Butchireddipalem,Buchireddipalem,182688,Community Health Centre,Buchireddipalem,02-Aug-19,Medical ,Community Health Centre,14.54015956,79.88278031,524305,"Government Hospital, Buchireddypalem - Utukuru Road, Gollapalem, Iskapalem, Buchireddipalem, Sri Potti Sriramulu Nellore District, Andhra Pradesh, 524305, India"
375,Andhra Pradesh,Prakasam,Markapur,Markapur R,1283348,Hundred beds Government hospital ,Markapur to Cumbum  road,13-Aug-19,Medical ,Bedded Hospital,15.740925,79.25550667,523329,"Markapuram Area Government hospital, Markapuram Town Road, Gundlakamma, Markapur, Prakasam District, Andhra Pradesh, 523329, India"
376,Andhra Pradesh,Y S R Kadapa,B Kodur,B.Kodur ST colony,1237309,Primary health center,b kodur ST colony,07-Sep-19,Medical ,Bedded Hospital,14.88361165,78.97596859,531126,"Guntapalle, B.Kodur, YSR District, Andhra Pradesh, India"
377,Andhra Pradesh,Kurnool,Dhone,Dhone Dronachalam,297344,community Health Center,paths peta,13-Aug-19,Medical ,Community Health Centre,15.39337333,77.87377,518222,"Dhone, Nandyal District, Andhra Pradesh, 518222, India"
378,Andhra Pradesh,East Godavari,Ainavilli,Vilasa,1097516,hospital,vilasa,01-Oct-19,Medical ,Bedded Hospital,16.63289167,82.02464,533201,"Mukteshwaram Road, Govvalavaripalem, Muktheswaram, Ainavilli, Dr. B. R. Ambedkar Konaseema District, Andhra Pradesh, 533201, India"
379,Andhra Pradesh,Guntur,Macherla,Tallapalli,1029353,Community health centre,Main road,28-Aug-19,Medical ,Community Health Centre,16.51680493,79.38421115,522426,"NH565, Bhairavunipadu, Macherla, Palnadu District, Andhra Pradesh, 522426, India"
380,Andhra Pradesh,Anantapur,Puttaparthi,Prasanthigram,1234659,SS Sai Institute of Medical Sciences,Super Hospital,14-Aug-19,Medical ,Bedded Hospital,14.16721947,77.70571345,515134,"Mallampalli, Kothacheruvu, Sri Sathya Sai District, Andhra Pradesh, India"
381,Andhra Pradesh,Krishna,Vijayawada Rural,Enekepadu,325000,Anu superspashality hospital,beside sonovision tankasala estaste,22-Aug-19,Medical ,Bedded Hospital,16.51941167,80.695055,520008,"NH16, Vijayawada (Rural), NTR District, Andhra Pradesh, 520008, India"
382,Andhra Pradesh,West Godavari,Chagallu,Chagallu,189515,Sowbhagyavathi bedded hospital,Chagallu,07-Aug-19,Medical ,Bedded Hospital,16.99272677,81.66728317,534342,"Chagallu, East Godavari District, Andhra Pradesh, 534342, India"
383,Andhra Pradesh,Prakasam,Dornala,Dornala,310440,Community Health Center,near Nataraj Center,25-Aug-19,Medical ,Community Health Centre,15.90831876,79.09427996,523331,"Government Hospital, Pedda Dornala, NH765, Doranala, Dornala, Prakasam District, Andhra Pradesh, 523331, India"
384,Andhra Pradesh,Krishna,Vissannapet,Telladeverapalli,1039281,Government hospital ,Telladeverapalli,30-Aug-19,Medical ,Bedded Hospital,16.98155641,80.72787097,535148,"Talladevarapalli, Vissannapeta, NTR District, Andhra Pradesh, India"
385,Andhra Pradesh,Anantapur,Yellanur,Yellanur,1110415,community health center,kallur ,15-Aug-19,Medical ,Community Health Centre,14.61094829,78.03940749,515465,"Kolluru, Yellanur, Anantapur District, Andhra Pradesh, India"
386,Andhra Pradesh,Anantapur,Yellanur,Yellanur,1110415,mathasishuvu hospital,yellanur ,27-Aug-19,Medical ,Bedded Hospital,14.6992373,78.07290316,515101,"Community Health Centre, Pulivendula-Tadipatri Road, Yellanur, Anantapur District, Andhra Pradesh, 515101, India"
387,Andhra Pradesh,Kurnool,Pattikonda,Dudekonda,312750,health center Sub,near school,31-Aug-19,Medical ,Community Health Centre,15.45255397,77.52256089,518465,"Maddikera - Pattikonda - Devanakonda Road, Kanakadinne, Pattikonda, Kurnool District, Andhra Pradesh, 518465, India"
388,Andhra Pradesh,Prakasam,Yeddanapudi,Eddanapudi,322357,General Hospital,Yddanapudi,12-Sep-19,Medical ,Community Health Centre,15.99608833,80.16930333,523301,"Government Hospital,Yaddanapudi, Parchuru - Pedajagarlamudi - Purimetla Road, Yaddanapudi, Yeddana Pudi, Prakasam District, Andhra Pradesh, 523301, India"
389,Andhra Pradesh,Guntur,Nagaram,Nagaram,742535,comunity health center,nagaram,29-Sep-19,Medical ,Community Health Centre,16.00167,80.72470667,522268,"Repalle - Pittalavanipalem Road, Kammavaripalem, Nagaram, Bapatla District, Andhra Pradesh, 522268, India"
